{"type":"FeatureCollection","features":[{"type":"Feature","properties":{"OBJECTID":1,"Gas_Station_ID":"NGS0009","MSID":"MSF3007350-  1","Name":"Tionesta","Name_Confirm_Status":"Yes","Name_Source":"Penwell","Alias":"TIONESTA #14B","Station_Type":"COMP","Owner":"PG&E","Map_Owner":"PG&E","Postal_City_Name":"Mcarthur","Zip_Code":"96056","County":"Modoc","State":"CA","Legend":"COMP","Comments":" "},"geometry":{"type":"Point","coordinates":[-121.31722257906516,41.64877247398391]}},{"type":"Feature","properties":{"OBJECTID":2,"Gas_Station_ID":"NGS0015","MSID":"MSF3006626-  1","Name":"Burney","Name_Confirm_Status":"Yes","Name_Source":"Penwell","Alias":" ","Station_Type":"COMP","Owner":"PG&E","Map_Owner":"PG&E","Postal_City_Name":"Burney","Zip_Code":"96013","County":"Shasta","State":"CA","Legend":"COMP","Comments":" "},"geometry":{"type":"Point","coordinates":[-121.63453077402949,40.897081152440414]}},{"type":"Feature","properties":{"OBJECTID":3,"Gas_Station_ID":"NGS0052","MSID":" ","Name":"Humboldt Bay Generation Sta.","Name_Confirm_Status":"Yes","Name_Source":"Cec Power Plant","Alias":" ","Station_Type":"COMP","Owner":"PG&E","Map_Owner":"PG&E","Postal_City_Name":"Eureka","Zip_Code":"95503","County":"Humboldt","State":"CA","Legend":"COMP","Comments":" "},"geometry":{"type":"Point","coordinates":[-124.20814962666002,40.74062093538652]}},{"type":"Feature","properties":{"OBJECTID":4,"Gas_Station_ID":"NGS0032","MSID":" ","Name":"Redding Power","Name_Confirm_Status":"Yes","Name_Source":"Cec Power Plant","Alias":" ","Station_Type":"COMP","Owner":"Redding Electric Utility","Map_Owner":"Other","Postal_City_Name":"Redding","Zip_Code":"96001","County":"Shasta","State":"CA","Legend":"COMP","Comments":" "},"geometry":{"type":"Point","coordinates":[-122.42448759449928,40.50848526002831]}},{"type":"Feature","properties":{"OBJECTID":5,"Gas_Station_ID":"NGS0033","MSID":" ","Name":"Knauf Insulation","Name_Confirm_Status":"Yes","Name_Source":"Cec Power Plant","Alias":" ","Station_Type":"COMP","Owner":"Knauf Insulation","Map_Owner":"Other","Postal_City_Name":"Shasta Lake","Zip_Code":"96019","County":"Shasta","State":"CA","Legend":"COMP","Comments":" "},"geometry":{"type":"Point","coordinates":[-122.39106600626242,40.65564098625629]}},{"type":"Feature","properties":{"OBJECTID":6,"Gas_Station_ID":"NGS0026","MSID":" ","Name":"Wheelabrator Shasta","Name_Confirm_Status":"No","Name_Source":"Cec Power Plant","Alias":" ","Station_Type":"COMP","Owner":"Wheelabrator","Map_Owner":"Other","Postal_City_Name":"Anderson","Zip_Code":"96007","County":"Shasta","State":"CA","Legend":"COMP","Comments":" "},"geometry":{"type":"Point","coordinates":[-122.27914733365172,40.4285324884513]}},{"type":"Feature","properties":{"OBJECTID":7,"Gas_Station_ID":"NGS0027","MSID":" ","Name":"Lassen Energy","Name_Confirm_Status":"No","Name_Source":"Cec Power Plant","Alias":" ","Station_Type":"COMP","Owner":"Wheelabrator","Map_Owner":"Other","Postal_City_Name":"Anderson","Zip_Code":"96007","County":"Shasta","State":"CA","Legend":"COMP","Comments":" "},"geometry":{"type":"Point","coordinates":[-122.26967887298817,40.43575807339863]}},{"type":"Feature","properties":{"OBJECTID":8,"Gas_Station_ID":"NGS0055","MSID":"MSF3007356-  1","Name":"Diamond Natural","Name_Confirm_Status":"Yes","Name_Source":"Penwell","Alias":" ","Station_Type":"COMP","Owner":"PG&E","Map_Owner":"PG&E","Postal_City_Name":"Red Bluff","Zip_Code":"96080","County":"Tehama","State":"CA","Legend":"COMP","Comments":" "},"geometry":{"type":"Point","coordinates":[-122.2124653388074,40.15021452753298]}},{"type":"Feature","properties":{"OBJECTID":9,"Gas_Station_ID":"NGS0045","MSID":"MSF3007357-  1","Name":"Gerber #15B","Name_Confirm_Status":"Yes","Name_Source":"Penwell","Alias":" ","Station_Type":"COMP","Owner":"PG&E","Map_Owner":"PG&E","Postal_City_Name":"Gerber","Zip_Code":"96035","County":"Tehama","State":"CA","Legend":"COMP","Comments":" "},"geometry":{"type":"Point","coordinates":[-122.21415447682534,40.06299060494936]}},{"type":"Feature","properties":{"OBJECTID":10,"Gas_Station_ID":"NGS0095","MSID":" ","Name":"Oroville Cogen","Name_Confirm_Status":"Yes","Name_Source":"Cec Power Plant","Alias":" ","Station_Type":"COMP","Owner":"Oroville Cogen","Map_Owner":"Other","Postal_City_Name":"Oroville","Zip_Code":"95965","County":"Butte","State":"CA","Legend":"COMP","Comments":" "},"geometry":{"type":"Point","coordinates":[-121.56299156255449,39.49214294293294]}},{"type":"Feature","properties":{"OBJECTID":11,"Gas_Station_ID":"NGS0102","MSID":" ","Name":"Chevron","Name_Confirm_Status":"Yes","Name_Source":"PG&E 2000","Alias":" ","Station_Type":"COMP","Owner":"Private","Map_Owner":"Other","Postal_City_Name":"Willows","Zip_Code":"95988","County":"Glenn","State":"CA","Legend":"COMP","Comments":" "},"geometry":{"type":"Point","coordinates":[-122.07940702480136,39.56208493188144]}},{"type":"Feature","properties":{"OBJECTID":12,"Gas_Station_ID":"NGS0107","MSID":" ","Name":"Wild Goose Mixer","Name_Confirm_Status":"Yes","Name_Source":"PG&E 2000","Alias":" ","Station_Type":"COMP","Owner":"WGSI","Map_Owner":"Other","Postal_City_Name":"Gridley","Zip_Code":"95948","County":"Butte","State":"CA","Legend":"COMP","Comments":" "},"geometry":{"type":"Point","coordinates":[-121.81748980367708,39.34822497323293]}},{"type":"Feature","properties":{"OBJECTID":13,"Gas_Station_ID":"NGS0111","MSID":" ","Name":"Cherokee Canal","Name_Confirm_Status":"No","Name_Source":"Street","Alias":" ","Station_Type":"COMP","Owner":"WGSI","Map_Owner":"Other","Postal_City_Name":"Gridley","Zip_Code":"95948","County":"Butte","State":"CA","Legend":"COMP","Comments":" "},"geometry":{"type":"Point","coordinates":[-121.88294739924288,39.32435200302797]}},{"type":"Feature","properties":{"OBJECTID":14,"Gas_Station_ID":"NGS0080","MSID":" ","Name":"Delevan","Name_Confirm_Status":"Yes","Name_Source":"PG&E 2000","Alias":" ","Station_Type":"COMP","Owner":"PG&E","Map_Owner":"PG&E","Postal_City_Name":"Stonyford","Zip_Code":"95979","County":"Colusa","State":"CA","Legend":"COMP","Comments":" "},"geometry":{"type":"Point","coordinates":[-122.26398491444766,39.36491059021816]}},{"type":"Feature","properties":{"OBJECTID":15,"Gas_Station_ID":"NGS0126","MSID":" ","Name":"Yuba City Energy Center","Name_Confirm_Status":"Yes","Name_Source":"Cec Power Plant","Alias":" ","Station_Type":"COMP","Owner":"Yuba City Energy","Map_Owner":"Other","Postal_City_Name":"Yuba City","Zip_Code":"95993","County":"Sutter","State":"CA","Legend":"COMP","Comments":" "},"geometry":{"type":"Point","coordinates":[-121.6387201868788,39.13916207647794]}},{"type":"Feature","properties":{"OBJECTID":16,"Gas_Station_ID":"NGS0128","MSID":" ","Name":"Greenleaf 2 Pp","Name_Confirm_Status":"Yes","Name_Source":"Cec Power Plant","Alias":" ","Station_Type":"COMP","Owner":"CPN","Map_Owner":"Other","Postal_City_Name":"Yuba City","Zip_Code":"95993","County":"Sutter","State":"CA","Legend":"COMP","Comments":" "},"geometry":{"type":"Point","coordinates":[-121.63978114868212,39.136544734170336]}},{"type":"Feature","properties":{"OBJECTID":17,"Gas_Station_ID":"NGS0129","MSID":" ","Name":"Greenleaf 1 Pp","Name_Confirm_Status":"Yes","Name_Source":"Cec Power Plant","Alias":" ","Station_Type":"COMP","Owner":"CPN","Map_Owner":"Other","Postal_City_Name":"Yuba City","Zip_Code":"95993","County":"Sutter","State":"CA","Legend":"COMP","Comments":" "},"geometry":{"type":"Point","coordinates":[-121.69655538240596,39.05281208678442]}},{"type":"Feature","properties":{"OBJECTID":18,"Gas_Station_ID":"NGS0130","MSID":" ","Name":"Sutter Pp","Name_Confirm_Status":"Yes","Name_Source":"Cec Power Plant","Alias":" ","Station_Type":"COMP","Owner":"CPN","Map_Owner":"Other","Postal_City_Name":"Yuba City","Zip_Code":"95993","County":"Sutter","State":"CA","Legend":"COMP","Comments":" "},"geometry":{"type":"Point","coordinates":[-121.6926513955343,39.052651991314974]}},{"type":"Feature","properties":{"OBJECTID":19,"Gas_Station_ID":"NGS0142","MSID":" ","Name":"Feather River Energy Center","Name_Confirm_Status":"Yes","Name_Source":"Cec Power Plant","Alias":" ","Station_Type":"COMP","Owner":"Feather River Energy Center","Map_Owner":"Other","Postal_City_Name":"Yuba City","Zip_Code":"95991","County":"Sutter","State":"CA","Legend":"COMP","Comments":" "},"geometry":{"type":"Point","coordinates":[-121.60920372436954,39.108877947859376]}},{"type":"Feature","properties":{"OBJECTID":20,"Gas_Station_ID":"NGS0150","MSID":" ","Name":"Roseville","Name_Confirm_Status":"Yes","Name_Source":"Cec Power Plant","Alias":" ","Station_Type":"COMP","Owner":"Northern California Power","Map_Owner":"Other","Postal_City_Name":"Lincoln","Zip_Code":"95648","County":"Placer","State":"CA","Legend":"COMP","Comments":" "},"geometry":{"type":"Point","coordinates":[-121.3233669174698,38.8107626665285]}},{"type":"Feature","properties":{"OBJECTID":21,"Gas_Station_ID":"NGS0152","MSID":" ","Name":"Roseville Energy Park","Name_Confirm_Status":"Yes","Name_Source":"Cec Power Plant","Alias":" ","Station_Type":"COMP","Owner":"City Of Roseville","Map_Owner":"Other","Postal_City_Name":"Roseville","Zip_Code":"95747","County":"Placer","State":"CA","Legend":"COMP","Comments":" "},"geometry":{"type":"Point","coordinates":[-121.38148046638229,38.79250816572931]}},{"type":"Feature","properties":{"OBJECTID":22,"Gas_Station_ID":"NGS0168","MSID":" ","Name":"Mcclellan Pp","Name_Confirm_Status":"Yes","Name_Source":"Cec Power Plant","Alias":" ","Station_Type":"COMP","Owner":"SMUD","Map_Owner":"Other","Postal_City_Name":"Mcclellan","Zip_Code":"95652","County":"Sacramento","State":"CA","Legend":"COMP","Comments":" "},"geometry":{"type":"Point","coordinates":[-121.39299455697568,38.65271485261603]}},{"type":"Feature","properties":{"OBJECTID":23,"Gas_Station_ID":"NGS0169","MSID":" ","Name":"Johnston","Name_Confirm_Status":"No","Name_Source":"Park","Alias":" ","Station_Type":"COMP","Owner":"PG&E","Map_Owner":"PG&E","Postal_City_Name":"Sacramento","Zip_Code":"95815","County":"Sacramento","State":"CA","Legend":"COMP","Comments":" "},"geometry":{"type":"Point","coordinates":[-121.46588229813452,38.61644420665353]}},{"type":"Feature","properties":{"OBJECTID":24,"Gas_Station_ID":"NGS0240","MSID":" ","Name":"Air Product 2","Name_Confirm_Status":"Yes","Name_Source":"Cec Power Plant","Alias":" ","Station_Type":"COMP","Owner":"SMUD","Map_Owner":"Other","Postal_City_Name":"Sacramento","Zip_Code":"95826","County":"Sacramento","State":"CA","Legend":"COMP","Comments":" "},"geometry":{"type":"Point","coordinates":[-121.40062726307596,38.530180190797005]}},{"type":"Feature","properties":{"OBJECTID":25,"Gas_Station_ID":"NGS0175","MSID":" ","Name":"Santa Rosa","Name_Confirm_Status":"Yes","Name_Source":"PG&E 2000","Alias":" ","Station_Type":"COMP","Owner":"PG&E","Map_Owner":"PG&E","Postal_City_Name":"Santa Rosa","Zip_Code":"95403","County":"Sonoma","State":"CA","Legend":"COMP","Comments":" "},"geometry":{"type":"Point","coordinates":[-122.74562696293825,38.46817278106516]}},{"type":"Feature","properties":{"OBJECTID":26,"Gas_Station_ID":"NGS0265","MSID":" ","Name":"Calpeak Power Vaca Dixon","Name_Confirm_Status":"No","Name_Source":"Cec Power Plant","Alias":" ","Station_Type":"COMP","Owner":"Calpeak","Map_Owner":"Other","Postal_City_Name":"Vacaville","Zip_Code":"95688","County":"Solano","State":"CA","Legend":"COMP","Comments":" "},"geometry":{"type":"Point","coordinates":[-121.92394594743575,38.39909174266289]}},{"type":"Feature","properties":{"OBJECTID":27,"Gas_Station_ID":"NGS0221","MSID":" ","Name":"Carson Cogen","Name_Confirm_Status":"Yes","Name_Source":"Cec Power Plant","Alias":" ","Station_Type":"COMP","Owner":"Central Valley Finanancing","Map_Owner":"Other","Postal_City_Name":"Elk Grove","Zip_Code":"95758","County":"Sacramento","State":"CA","Legend":"COMP","Comments":" "},"geometry":{"type":"Point","coordinates":[-121.46237496041022,38.44516323297153]}},{"type":"Feature","properties":{"OBJECTID":28,"Gas_Station_ID":"NGS0241","MSID":" ","Name":"Smud Consumnes River Phase 1","Name_Confirm_Status":"No","Name_Source":"Cec Power Plant","Alias":" ","Station_Type":"COMP","Owner":"SMUD","Map_Owner":"Other","Postal_City_Name":"Herald","Zip_Code":"95638","County":"Sacramento","State":"CA","Legend":"COMP","Comments":" "},"geometry":{"type":"Point","coordinates":[-121.12415715072028,38.33783597372525]}},{"type":"Feature","properties":{"OBJECTID":29,"Gas_Station_ID":"NGS0187","MSID":" ","Name":"Wolfskill Energy Center","Name_Confirm_Status":"Yes","Name_Source":"Cec Power Plant","Alias":" ","Station_Type":"COMP","Owner":"CPN","Map_Owner":"Other","Postal_City_Name":"Fairfield","Zip_Code":"94534","County":"Solano","State":"CA","Legend":"COMP","Comments":" "},"geometry":{"type":"Point","coordinates":[-122.11196529157172,38.21610718996488]}},{"type":"Feature","properties":{"OBJECTID":30,"Gas_Station_ID":"NGS0278","MSID":" ","Name":"K-11, K-15, K-16 & 20","Name_Confirm_Status":"Yes","Name_Source":"PG&E 2000","Alias":" ","Station_Type":"COMP","Owner":"PG&E","Map_Owner":"PG&E","Postal_City_Name":"Rio Vista","Zip_Code":"94571","County":"Solano","State":"CA","Legend":"COMP","Comments":" "},"geometry":{"type":"Point","coordinates":[-121.72431673776,38.17276013733227]}},{"type":"Feature","properties":{"OBJECTID":31,"Gas_Station_ID":"NGS0294","MSID":" ","Name":"K-6","Name_Confirm_Status":"Yes","Name_Source":"PG&E 2000","Alias":" ","Station_Type":"COMP","Owner":"PG&E","Map_Owner":"PG&E","Postal_City_Name":"Rio Vista","Zip_Code":"94571","County":"Solano","State":"CA","Legend":"COMP","Comments":" "},"geometry":{"type":"Point","coordinates":[-121.71747530186744,38.15039071082907]}},{"type":"Feature","properties":{"OBJECTID":32,"Gas_Station_ID":"NGS0295","MSID":" ","Name":"Montezuma Hills","Name_Confirm_Status":"No","Name_Source":"Street","Alias":" ","Station_Type":"COMP","Owner":"CPN","Map_Owner":"Other","Postal_City_Name":"Rio Vista","Zip_Code":"94571","County":"Solano","State":"CA","Legend":"COMP","Comments":" "},"geometry":{"type":"Point","coordinates":[-121.70749364295293,38.14465056765098]}},{"type":"Feature","properties":{"OBJECTID":33,"Gas_Station_ID":"NGS0298","MSID":" ","Name":"K-9, K-10, K-25","Name_Confirm_Status":"Yes","Name_Source":"PG&E 2000","Alias":" ","Station_Type":"COMP","Owner":"PG&E","Map_Owner":"PG&E","Postal_City_Name":"Rio Vista","Zip_Code":"94571","County":"Solano","State":"CA","Legend":"COMP","Comments":" "},"geometry":{"type":"Point","coordinates":[-121.70487242059312,38.17422706298964]}},{"type":"Feature","properties":{"OBJECTID":34,"Gas_Station_ID":"NGS0305","MSID":" ","Name":"K-1","Name_Confirm_Status":"Yes","Name_Source":"PG&E 2000","Alias":" ","Station_Type":"COMP","Owner":"PG&E","Map_Owner":"PG&E","Postal_City_Name":"Rio Vista","Zip_Code":"94571","County":"Solano","State":"CA","Legend":"COMP","Comments":" "},"geometry":{"type":"Point","coordinates":[-121.71639878712206,38.1444671804523]}},{"type":"Feature","properties":{"OBJECTID":35,"Gas_Station_ID":"NGS0307","MSID":" ","Name":"Drouin","Name_Confirm_Status":"Yes","Name_Source":"PG&E 2000","Alias":" ","Station_Type":"COMP","Owner":"PG&E","Map_Owner":"PG&E","Postal_City_Name":"Rio Vista","Zip_Code":"94571","County":"Solano","State":"CA","Legend":"COMP","Comments":" "},"geometry":{"type":"Point","coordinates":[-121.70506950281292,38.15301988358038]}},{"type":"Feature","properties":{"OBJECTID":36,"Gas_Station_ID":"NGS0309","MSID":" ","Name":"K-14","Name_Confirm_Status":"Yes","Name_Source":"PG&E 2000","Alias":" ","Station_Type":"COMP","Owner":"PG&E","Map_Owner":"PG&E","Postal_City_Name":"Rio Vista","Zip_Code":"94571","County":"Solano","State":"CA","Legend":"COMP","Comments":" "},"geometry":{"type":"Point","coordinates":[-121.715772694638,38.125704577902574]}},{"type":"Feature","properties":{"OBJECTID":37,"Gas_Station_ID":"NGS0185","MSID":" ","Name":"Creed Energy Center","Name_Confirm_Status":"Yes","Name_Source":"Cec Power Plant","Alias":" ","Station_Type":"COMP","Owner":"CPN","Map_Owner":"Other","Postal_City_Name":"Suisun City","Zip_Code":"94585","County":"Solano","State":"CA","Legend":"COMP","Comments":" "},"geometry":{"type":"Point","coordinates":[-121.85507779412336,38.241743422427426]}},{"type":"Feature","properties":{"OBJECTID":38,"Gas_Station_ID":"NGS0271","MSID":" ","Name":"Lambie Energy Center","Name_Confirm_Status":"Yes","Name_Source":"Cec Power Plant","Alias":" ","Station_Type":"COMP","Owner":"CPN","Map_Owner":"Other","Postal_City_Name":"Suisun City","Zip_Code":"94585","County":"Solano","State":"CA","Legend":"COMP","Comments":" "},"geometry":{"type":"Point","coordinates":[-121.86808756516471,38.2220009282467]}},{"type":"Feature","properties":{"OBJECTID":39,"Gas_Station_ID":"NGS0272","MSID":" ","Name":"Goose Haven Energy Center","Name_Confirm_Status":"Yes","Name_Source":"Cec Power Plant","Alias":" ","Station_Type":"COMP","Owner":"CPN","Map_Owner":"Other","Postal_City_Name":"Suisun City","Zip_Code":"94585","County":"Solano","State":"CA","Legend":"COMP","Comments":" "},"geometry":{"type":"Point","coordinates":[-121.84364571011491,38.22706632218659]}},{"type":"Feature","properties":{"OBJECTID":40,"Gas_Station_ID":"NGS0287","MSID":" ","Name":"Montezuma Slough 2","Name_Confirm_Status":"No","Name_Source":"River","Alias":" ","Station_Type":"COMP","Owner":"Lodi Gas","Map_Owner":"Other","Postal_City_Name":"Suisun City","Zip_Code":"94585","County":"Solano","State":"CA","Legend":"COMP","Comments":" "},"geometry":{"type":"Point","coordinates":[-121.90557709792596,38.15972568536123]}},{"type":"Feature","properties":{"OBJECTID":41,"Gas_Station_ID":"NGS0327","MSID":" ","Name":"Purple Hearth","Name_Confirm_Status":"No","Name_Source":"Street","Alias":" ","Station_Type":"COMP","Owner":"Lodi Gas","Map_Owner":"Other","Postal_City_Name":"Acampo","Zip_Code":"95220","County":"San Joaquin","State":"CA","Legend":"COMP","Comments":" "},"geometry":{"type":"Point","coordinates":[-121.2706025071904,38.19746151720959]}},{"type":"Feature","properties":{"OBJECTID":42,"Gas_Station_ID":"NGS0314","MSID":" ","Name":"Tyler Island 3","Name_Confirm_Status":"No","Name_Source":"Island","Alias":" ","Station_Type":"COMP","Owner":"PG&E","Map_Owner":"PG&E","Postal_City_Name":"Isleton","Zip_Code":"95641","County":"Sacramento","State":"CA","Legend":"COMP","Comments":" "},"geometry":{"type":"Point","coordinates":[-121.56646871679423,38.166925308717175]}},{"type":"Feature","properties":{"OBJECTID":43,"Gas_Station_ID":"NGS0331","MSID":" ","Name":"Brannon Island 3","Name_Confirm_Status":"Yes","Name_Source":"PG&E 2000","Alias":" ","Station_Type":"COMP","Owner":"PG&E","Map_Owner":"PG&E","Postal_City_Name":"Isleton","Zip_Code":"95641","County":"Sacramento","State":"CA","Legend":"COMP","Comments":" "},"geometry":{"type":"Point","coordinates":[-121.68449506878208,38.123983419991646]}},{"type":"Feature","properties":{"OBJECTID":44,"Gas_Station_ID":"NGS0345","MSID":" ","Name":"Lodi","Name_Confirm_Status":"Yes","Name_Source":"Cec Power Plant","Alias":" ","Station_Type":"COMP","Owner":"Northern California Power","Map_Owner":"Other","Postal_City_Name":"Lodi","Zip_Code":"95242","County":"San Joaquin","State":"CA","Legend":"COMP","Comments":" "},"geometry":{"type":"Point","coordinates":[-121.3004835940438,38.14655917947275]}},{"type":"Feature","properties":{"OBJECTID":45,"Gas_Station_ID":"NGS0347","MSID":" ","Name":"Ncpa Stig","Name_Confirm_Status":"Yes","Name_Source":"Cec Power Plant","Alias":" ","Station_Type":"COMP","Owner":"Northern California Power","Map_Owner":"Other","Postal_City_Name":"Lodi","Zip_Code":"95242","County":"San Joaquin","State":"CA","Legend":"COMP","Comments":" "},"geometry":{"type":"Point","coordinates":[-121.38740220080656,38.08810331813083]}},{"type":"Feature","properties":{"OBJECTID":46,"Gas_Station_ID":"NGS0336","MSID":" ","Name":"River Rd","Name_Confirm_Status":"No","Name_Source":"Street","Alias":" ","Station_Type":"COMP","Owner":"PG&E","Map_Owner":"PG&E","Postal_City_Name":"Rio Vista","Zip_Code":"94571","County":"Sacramento","State":"CA","Legend":"COMP","Comments":" "},"geometry":{"type":"Point","coordinates":[-121.70687746351786,38.0869315626687]}},{"type":"Feature","properties":{"OBJECTID":47,"Gas_Station_ID":"NGS0334","MSID":" ","Name":"Oakley Generation Sta.","Name_Confirm_Status":"Yes","Name_Source":"Cec Power Plant","Alias":" ","Station_Type":"COMP","Owner":"Contra Costa Generating","Map_Owner":"Other","Postal_City_Name":"Oakley","Zip_Code":"94561","County":"Contra Costa","State":"CA","Legend":"COMP","Comments":" "},"geometry":{"type":"Point","coordinates":[-121.74952687842186,38.00935313869411]}},{"type":"Feature","properties":{"OBJECTID":48,"Gas_Station_ID":"NGS0375","MSID":" ","Name":"Mcdonald 1Sland 1","Name_Confirm_Status":"Yes","Name_Source":"PG&E 2000","Alias":" ","Station_Type":"COMP","Owner":"PG&E","Map_Owner":"PG&E","Postal_City_Name":"Stockton","Zip_Code":"95206","County":"San Joaquin","State":"CA","Legend":"COMP","Comments":" "},"geometry":{"type":"Point","coordinates":[-121.48147583009712,37.98893356309459]}},{"type":"Feature","properties":{"OBJECTID":49,"Gas_Station_ID":"NGS0405","MSID":" ","Name":"Calpine Pittsburg","Name_Confirm_Status":"Yes","Name_Source":"Cec Power Plant","Alias":" ","Station_Type":"COMP","Owner":"CPN","Map_Owner":"Other","Postal_City_Name":"Pittsburg","Zip_Code":"94565","County":"Contra Costa","State":"CA","Legend":"COMP","Comments":" "},"geometry":{"type":"Point","coordinates":[-121.85086105343008,38.02574184432176]}},{"type":"Feature","properties":{"OBJECTID":50,"Gas_Station_ID":"NGS0479","MSID":" ","Name":"Tosco Sfar Carbon","Name_Confirm_Status":"Yes","Name_Source":"Cec Power Plant","Alias":" ","Station_Type":"COMP","Owner":"Tosco","Map_Owner":"Other","Postal_City_Name":"Rodeo","Zip_Code":"94572","County":"Contra Costa","State":"CA","Legend":"COMP","Comments":" "},"geometry":{"type":"Point","coordinates":[-122.23881177913631,38.018907669080114]}},{"type":"Feature","properties":{"OBJECTID":51,"Gas_Station_ID":"NGS0475","MSID":" ","Name":"Foster-Wheeler Martinez Cogen L.P.","Name_Confirm_Status":"Yes","Name_Source":"Cec Power Plant","Alias":" ","Station_Type":"COMP","Owner":"Foster Wheeler Power","Map_Owner":"Other","Postal_City_Name":"Martinez","Zip_Code":"94553","County":"Contra Costa","State":"CA","Legend":"COMP","Comments":" "},"geometry":{"type":"Point","coordinates":[-122.06749854442415,38.021149457397385]}},{"type":"Feature","properties":{"OBJECTID":52,"Gas_Station_ID":"NGS0398","MSID":" ","Name":"Contra Costa","Name_Confirm_Status":"Yes","Name_Source":"Cec Power Plant","Alias":" ","Station_Type":"COMP","Owner":"Mirant","Map_Owner":"Other","Postal_City_Name":"Antioch","Zip_Code":"94509","County":"Contra Costa","State":"CA","Legend":"COMP","Comments":" "},"geometry":{"type":"Point","coordinates":[-121.76270457224788,38.01894452595232]}},{"type":"Feature","properties":{"OBJECTID":53,"Gas_Station_ID":"NGS0399","MSID":" ","Name":"Mobile Gt","Name_Confirm_Status":"Yes","Name_Source":"Cec Power Plant","Alias":" ","Station_Type":"COMP","Owner":"PG&E","Map_Owner":"PG&E","Postal_City_Name":"Antioch","Zip_Code":"94509","County":"Contra Costa","State":"CA","Legend":"COMP","Comments":" "},"geometry":{"type":"Point","coordinates":[-121.786338620588,38.01284673832526]}},{"type":"Feature","properties":{"OBJECTID":54,"Gas_Station_ID":"NGS0404","MSID":" ","Name":"Delta Energy","Name_Confirm_Status":"Yes","Name_Source":"Cec Power Plant","Alias":" ","Station_Type":"COMP","Owner":"Delta Energy","Map_Owner":"Other","Postal_City_Name":"Antioch","Zip_Code":"94509","County":"Contra Costa","State":"CA","Legend":"COMP","Comments":" "},"geometry":{"type":"Point","coordinates":[-121.84670854657448,38.01843670225775]}},{"type":"Feature","properties":{"OBJECTID":55,"Gas_Station_ID":"NGS0351","MSID":" ","Name":"San Joaquin Cogen","Name_Confirm_Status":"Yes","Name_Source":"Cec Power Plant","Alias":" ","Station_Type":"COMP","Owner":"El Paso","Map_Owner":"Other","Postal_City_Name":"Lathrop","Zip_Code":"95330","County":"San Joaquin","State":"CA","Legend":"COMP","Comments":" "},"geometry":{"type":"Point","coordinates":[-121.2903558334422,37.80669859492202]}},{"type":"Feature","properties":{"OBJECTID":56,"Gas_Station_ID":"NGS0504","MSID":" ","Name":"Ripon Mill","Name_Confirm_Status":"No","Name_Source":"Cec Power Plant","Alias":" ","Station_Type":"COMP","Owner":"Ripon Cogen Inc","Map_Owner":"Other","Postal_City_Name":"Ripon","Zip_Code":"95366","County":"San Joaquin","State":"CA","Legend":"COMP","Comments":" "},"geometry":{"type":"Point","coordinates":[-121.11572341608758,37.73144047478424]}},{"type":"Feature","properties":{"OBJECTID":57,"Gas_Station_ID":"NGS0506","MSID":" ","Name":"Mid Ripon","Name_Confirm_Status":"Yes","Name_Source":"Cec Power Plant","Alias":" ","Station_Type":"COMP","Owner":"MID","Map_Owner":"Other","Postal_City_Name":"Ripon","Zip_Code":"95366","County":"San Joaquin","State":"CA","Legend":"COMP","Comments":" "},"geometry":{"type":"Point","coordinates":[-121.12525767784088,37.73127778776191]}},{"type":"Feature","properties":{"OBJECTID":58,"Gas_Station_ID":"NGS0359","MSID":" ","Name":"Byron","Name_Confirm_Status":"Yes","Name_Source":"PG&E 2000","Alias":" ","Station_Type":"COMP","Owner":"PG&E","Map_Owner":"PG&E","Postal_City_Name":"Byron","Zip_Code":"94514","County":"Alameda","State":"CA","Legend":"COMP","Comments":" "},"geometry":{"type":"Point","coordinates":[-121.6025784007934,37.79621500950544]}},{"type":"Feature","properties":{"OBJECTID":59,"Gas_Station_ID":"NGS0366","MSID":" ","Name":"Byron Power Cogen","Name_Confirm_Status":"Yes","Name_Source":"Cec Power Plant","Alias":" ","Station_Type":"COMP","Owner":"Ridgewood Byron","Map_Owner":"Other","Postal_City_Name":"Byron","Zip_Code":"94514","County":"Alameda","State":"CA","Legend":"COMP","Comments":" "},"geometry":{"type":"Point","coordinates":[-121.60051461289702,37.791711865494456]}},{"type":"Feature","properties":{"OBJECTID":60,"Gas_Station_ID":"NGS0361","MSID":" ","Name":"Gwf Tracy","Name_Confirm_Status":"Yes","Name_Source":"Cec Power Plant","Alias":" ","Station_Type":"COMP","Owner":"Gwf Energy","Map_Owner":"Other","Postal_City_Name":"Tracy","Zip_Code":"95377","County":"San Joaquin","State":"CA","Legend":"COMP","Comments":" "},"geometry":{"type":"Point","coordinates":[-121.49141116451088,37.71090494994982]}},{"type":"Feature","properties":{"OBJECTID":61,"Gas_Station_ID":"NGS0496","MSID":" ","Name":"Hunters Point","Name_Confirm_Status":"Yes","Name_Source":"Cec Power Plant","Alias":" ","Station_Type":"COMP","Owner":"PG&E","Map_Owner":"PG&E","Postal_City_Name":"San Francisco","Zip_Code":"94124","County":"San Francisco","State":"CA","Legend":"COMP","Comments":" "},"geometry":{"type":"Point","coordinates":[-122.37596677027456,37.73691450369624]}},{"type":"Feature","properties":{"OBJECTID":62,"Gas_Station_ID":"NGS0503","MSID":" ","Name":"Almond","Name_Confirm_Status":"Yes","Name_Source":"Cec Power Plant","Alias":" ","Station_Type":"COMP","Owner":"TID","Map_Owner":"Other","Postal_City_Name":"Modesto","Zip_Code":"95358","County":"Stanislaus","State":"CA","Legend":"COMP","Comments":" "},"geometry":{"type":"Point","coordinates":[-120.98521365702892,37.57383573894851]}},{"type":"Feature","properties":{"OBJECTID":63,"Gas_Station_ID":"NGS0507","MSID":" ","Name":"Woodland 2","Name_Confirm_Status":"Yes","Name_Source":"Cec Substation","Alias":" ","Station_Type":"COMP","Owner":"PG&E","Map_Owner":"PG&E","Postal_City_Name":"Modesto","Zip_Code":"95351","County":"Stanislaus","State":"CA","Legend":"COMP","Comments":" "},"geometry":{"type":"Point","coordinates":[-121.01899204957512,37.653008026441285]}},{"type":"Feature","properties":{"OBJECTID":64,"Gas_Station_ID":"NGS0510","MSID":" ","Name":"Mcclure","Name_Confirm_Status":"No","Name_Source":"Cec Substation","Alias":" ","Station_Type":"COMP","Owner":"Private","Map_Owner":"Other","Postal_City_Name":"Modesto","Zip_Code":"95354","County":"Stanislaus","State":"CA","Legend":"COMP","Comments":" "},"geometry":{"type":"Point","coordinates":[-120.93132244723849,37.62905309149301]}},{"type":"Feature","properties":{"OBJECTID":65,"Gas_Station_ID":"NGS0514","MSID":" ","Name":"Walnut Energy Center","Name_Confirm_Status":"Yes","Name_Source":"Cec Power Plant","Alias":" ","Station_Type":"COMP","Owner":"TID","Map_Owner":"Other","Postal_City_Name":"Turlock","Zip_Code":"95380","County":"Stanislaus","State":"CA","Legend":"COMP","Comments":" "},"geometry":{"type":"Point","coordinates":[-120.89568814466296,37.48743716720816]}},{"type":"Feature","properties":{"OBJECTID":66,"Gas_Station_ID":"NGS0515","MSID":" ","Name":"Walnut","Name_Confirm_Status":"Yes","Name_Source":"Cec Power Plant","Alias":" ","Station_Type":"COMP","Owner":"TID","Map_Owner":"Other","Postal_City_Name":"Turlock","Zip_Code":"95380","County":"Stanislaus","State":"CA","Legend":"COMP","Comments":" "},"geometry":{"type":"Point","coordinates":[-120.90456714316856,37.4900527538484]}},{"type":"Feature","properties":{"OBJECTID":67,"Gas_Station_ID":"NGS0534","MSID":" ","Name":"San Joaquin Power Co.","Name_Confirm_Status":"No","Name_Source":"Cec Power Plant","Alias":" ","Station_Type":"COMP","Owner":"San Joaquin Power","Map_Owner":"Other","Postal_City_Name":"Winton","Zip_Code":"95388","County":"Merced","State":"CA","Legend":"COMP","Comments":" "},"geometry":{"type":"Point","coordinates":[-120.6278908108388,37.362443526897174]}},{"type":"Feature","properties":{"OBJECTID":68,"Gas_Station_ID":"NGS0601","MSID":" ","Name":"Donald Von Raesfeld Cc","Name_Confirm_Status":"No","Name_Source":"Cec Power Plant","Alias":" ","Station_Type":"COMP","Owner":"Silicon Valley Power","Map_Owner":"Other","Postal_City_Name":"Santa Clara","Zip_Code":"95054","County":"Santa Clara","State":"CA","Legend":"COMP","Comments":" "},"geometry":{"type":"Point","coordinates":[-121.95080405553146,37.37701794358104]}},{"type":"Feature","properties":{"OBJECTID":69,"Gas_Station_ID":"NGS0606","MSID":" ","Name":"City Of Santa Clara","Name_Confirm_Status":"Yes","Name_Source":"Cec Power Plant","Alias":" ","Station_Type":"COMP","Owner":"City Of Santa Clara","Map_Owner":"Other","Postal_City_Name":"Santa Clara","Zip_Code":"95050","County":"Santa Clara","State":"CA","Legend":"COMP","Comments":" "},"geometry":{"type":"Point","coordinates":[-121.94467681363396,37.36907557341473]}},{"type":"Feature","properties":{"OBJECTID":70,"Gas_Station_ID":"NGS0611","MSID":" ","Name":"Calpine Gilroy Cogen","Name_Confirm_Status":"Yes","Name_Source":"Cec Power Plant","Alias":" ","Station_Type":"COMP","Owner":"CPN","Map_Owner":"Other","Postal_City_Name":"Gilroy","Zip_Code":"95020","County":"Santa Clara","State":"CA","Legend":"COMP","Comments":" "},"geometry":{"type":"Point","coordinates":[-121.53686280716506,37.00074563260574]}},{"type":"Feature","properties":{"OBJECTID":71,"Gas_Station_ID":"NGS0614","MSID":" ","Name":"Watsonville Cogen","Name_Confirm_Status":"Yes","Name_Source":"Cec Power Plant","Alias":" ","Station_Type":"COMP","Owner":"CPN","Map_Owner":"Other","Postal_City_Name":"Watsonville","Zip_Code":"95076","County":"Santa Cruz","State":"CA","Legend":"COMP","Comments":" "},"geometry":{"type":"Point","coordinates":[-121.76842212636032,36.911306027200474]}},{"type":"Feature","properties":{"OBJECTID":72,"Gas_Station_ID":"NGS0563","MSID":" ","Name":"Sanger Power & Feed","Name_Confirm_Status":"No","Name_Source":"Cec Power Plant","Alias":" ","Station_Type":"COMP","Owner":"Dynamis Inc","Map_Owner":"Other","Postal_City_Name":"Sanger","Zip_Code":"93657","County":"Fresno","State":"CA","Legend":"COMP","Comments":" "},"geometry":{"type":"Point","coordinates":[-119.55294642684586,36.68433471076708]}},{"type":"Feature","properties":{"OBJECTID":73,"Gas_Station_ID":"NGS0619","MSID":" ","Name":"Moss Landing","Name_Confirm_Status":"Yes","Name_Source":"PG&E 2000","Alias":" ","Station_Type":"COMP","Owner":"PG&E","Map_Owner":"PG&E","Postal_City_Name":"Moss Landing","Zip_Code":"95039","County":"Monterey","State":"CA","Legend":"COMP","Comments":" "},"geometry":{"type":"Point","coordinates":[-121.78211570662624,36.80513089885218]}},{"type":"Feature","properties":{"OBJECTID":74,"Gas_Station_ID":"NGS0546","MSID":" ","Name":"Oxford","Name_Confirm_Status":"Yes","Name_Source":"Cec Substation","Alias":" ","Station_Type":"COMP","Owner":"PG&E","Map_Owner":"PG&E","Postal_City_Name":"Mendota","Zip_Code":"93640","County":"Fresno","State":"CA","Legend":"COMP","Comments":" "},"geometry":{"type":"Point","coordinates":[-120.70155003937548,36.71451627120565]}},{"type":"Feature","properties":{"OBJECTID":75,"Gas_Station_ID":"NGS0557","MSID":" ","Name":"S Del Norte","Name_Confirm_Status":"No","Name_Source":"Street","Alias":" ","Station_Type":"COMP","Owner":"PG&E","Map_Owner":"PG&E","Postal_City_Name":"Huron","Zip_Code":"93234","County":"Fresno","State":"CA","Legend":"COMP","Comments":" "},"geometry":{"type":"Point","coordinates":[-120.08605250829774,36.52693456361505]}},{"type":"Feature","properties":{"OBJECTID":76,"Gas_Station_ID":"NGS0566","MSID":" ","Name":"Gates Wellhead","Name_Confirm_Status":"Yes","Name_Source":"Cec Substation","Alias":" ","Station_Type":"COMP","Owner":"PG&E","Map_Owner":"PG&E","Postal_City_Name":"Huron","Zip_Code":"93234","County":"Fresno","State":"CA","Legend":"COMP","Comments":" "},"geometry":{"type":"Point","coordinates":[-120.14819176057068,36.15263627071184]}},{"type":"Feature","properties":{"OBJECTID":77,"Gas_Station_ID":"NGS0588","MSID":" ","Name":"Wellhead Power Gates","Name_Confirm_Status":"Yes","Name_Source":"Cec Power Plant","Alias":" ","Station_Type":"COMP","Owner":"Wellhead Power Gates","Map_Owner":"Other","Postal_City_Name":"Huron","Zip_Code":"93234","County":"Fresno","State":"CA","Legend":"COMP","Comments":" "},"geometry":{"type":"Point","coordinates":[-120.15357829105324,36.18310668190558]}},{"type":"Feature","properties":{"OBJECTID":78,"Gas_Station_ID":"NGS0585","MSID":" ","Name":"Coalinga","Name_Confirm_Status":"Yes","Name_Source":"Cec Power Plant","Alias":" ","Station_Type":"COMP","Owner":"Chevron","Map_Owner":"Other","Postal_City_Name":"Coalinga","Zip_Code":"93210","County":"Fresno","State":"CA","Legend":"COMP","Comments":" "},"geometry":{"type":"Point","coordinates":[-120.38836872950183,36.18067925302184]}},{"type":"Feature","properties":{"OBJECTID":79,"Gas_Station_ID":"NGS0633","MSID":" ","Name":"Calpine King Energy Center","Name_Confirm_Status":"Yes","Name_Source":"Cec Power Plant","Alias":" ","Station_Type":"COMP","Owner":"CPN","Map_Owner":"Other","Postal_City_Name":"King City","Zip_Code":"93930","County":"Monterey","State":"CA","Legend":"COMP","Comments":" "},"geometry":{"type":"Point","coordinates":[-121.12483391470128,36.224826530606016]}},{"type":"Feature","properties":{"OBJECTID":80,"Gas_Station_ID":"NGS0631","MSID":" ","Name":"Salinas River Cogen","Name_Confirm_Status":"Yes","Name_Source":"Cec Power Plant","Alias":" ","Station_Type":"COMP","Owner":"Salinas River Cogen","Map_Owner":"Other","Postal_City_Name":"San Ardo","Zip_Code":"93450","County":"Monterey","State":"CA","Legend":"COMP","Comments":" "},"geometry":{"type":"Point","coordinates":[-120.86790212053609,35.95176350468645]}},{"type":"Feature","properties":{"OBJECTID":81,"Gas_Station_ID":"NGS0587","MSID":" ","Name":"Kettleman","Name_Confirm_Status":"Yes","Name_Source":"PG&E 2000","Alias":" ","Station_Type":"COMP","Owner":"PG&E","Map_Owner":"PG&E","Postal_City_Name":"Kettleman City","Zip_Code":"93239","County":"Kings","State":"CA","Legend":"COMP","Comments":" "},"geometry":{"type":"Point","coordinates":[-120.08732624473544,36.070754611316694]}},{"type":"Feature","properties":{"OBJECTID":82,"Gas_Station_ID":"NGS0652","MSID":" ","Name":"Skyline","Name_Confirm_Status":"No","Name_Source":"Street","Alias":" ","Station_Type":"COMP","Owner":"SoCal Gas","Map_Owner":"SoCal Gas","Postal_City_Name":"Avenal","Zip_Code":"93204","County":"Kings","State":"CA","Legend":"COMP","Comments":" "},"geometry":{"type":"Point","coordinates":[-120.11461187870545,36.05056707099543]}},{"type":"Feature","properties":{"OBJECTID":83,"Gas_Station_ID":"NGS0805","MSID":" ","Name":"Mt. Poso","Name_Confirm_Status":"No","Name_Source":"Topo","Alias":" ","Station_Type":"COMP","Owner":"PG&E","Map_Owner":"PG&E","Postal_City_Name":"Bakersfield","Zip_Code":"93308","County":"Kern","State":"CA","Legend":"COMP","Comments":" "},"geometry":{"type":"Point","coordinates":[-119.00605166414144,35.5764843126638]}},{"type":"Feature","properties":{"OBJECTID":84,"Gas_Station_ID":"NGS0810","MSID":" ","Name":"Round Mt. 2","Name_Confirm_Status":"No","Name_Source":"Street","Alias":" ","Station_Type":"COMP","Owner":"Chevron","Map_Owner":"Other","Postal_City_Name":"Bakersfield","Zip_Code":"93308","County":"Kern","State":"CA","Legend":"COMP","Comments":" "},"geometry":{"type":"Point","coordinates":[-118.95549924552864,35.44396189857353]}},{"type":"Feature","properties":{"OBJECTID":85,"Gas_Station_ID":"NGS0821","MSID":" ","Name":"High Sierra Ltd","Name_Confirm_Status":"Yes","Name_Source":"Cec Power Plant","Alias":" ","Station_Type":"COMP","Owner":"El Paso","Map_Owner":"Other","Postal_City_Name":"Bakersfield","Zip_Code":"93308","County":"Kern","State":"CA","Legend":"COMP","Comments":" "},"geometry":{"type":"Point","coordinates":[-119.04009015103054,35.5156756527506]}},{"type":"Feature","properties":{"OBJECTID":86,"Gas_Station_ID":"NGS0822","MSID":" ","Name":"Double \"C\" Ltd","Name_Confirm_Status":"Yes","Name_Source":"Cec Power Plant","Alias":" ","Station_Type":"COMP","Owner":"El Paso","Map_Owner":"Other","Postal_City_Name":"Bakersfield","Zip_Code":"93308","County":"Kern","State":"CA","Legend":"COMP","Comments":" "},"geometry":{"type":"Point","coordinates":[-119.04608507791058,35.500672799138286]}},{"type":"Feature","properties":{"OBJECTID":87,"Gas_Station_ID":"NGS0823","MSID":" ","Name":"Kern Front","Name_Confirm_Status":"Yes","Name_Source":"Cec Power Plant","Alias":" ","Station_Type":"COMP","Owner":"El Paso","Map_Owner":"Other","Postal_City_Name":"Bakersfield","Zip_Code":"93308","County":"Kern","State":"CA","Legend":"COMP","Comments":" "},"geometry":{"type":"Point","coordinates":[-119.0305185842722,35.509089512758614]}},{"type":"Feature","properties":{"OBJECTID":88,"Gas_Station_ID":"NGS0824","MSID":" ","Name":"Badger Creek Ltd","Name_Confirm_Status":"Yes","Name_Source":"Cec Power Plant","Alias":" ","Station_Type":"COMP","Owner":"El Paso","Map_Owner":"Other","Postal_City_Name":"Bakersfield","Zip_Code":"93308","County":"Kern","State":"CA","Legend":"COMP","Comments":" "},"geometry":{"type":"Point","coordinates":[-119.0298367590762,35.48372412723996]}},{"type":"Feature","properties":{"OBJECTID":89,"Gas_Station_ID":"NGS0825","MSID":" ","Name":"Live Oak Cogen","Name_Confirm_Status":"Yes","Name_Source":"Cec Power Plant","Alias":" ","Station_Type":"COMP","Owner":"El Paso","Map_Owner":"Other","Postal_City_Name":"Bakersfield","Zip_Code":"93308","County":"Kern","State":"CA","Legend":"COMP","Comments":" "},"geometry":{"type":"Point","coordinates":[-119.00891021935674,35.496220476032214]}},{"type":"Feature","properties":{"OBJECTID":90,"Gas_Station_ID":"NGS0828","MSID":" ","Name":"Cal Resources-N. Midway Sunset","Name_Confirm_Status":"Yes","Name_Source":"Cec Power Plant","Alias":" ","Station_Type":"COMP","Owner":"Aera Energy","Map_Owner":"Other","Postal_City_Name":"Bakersfield","Zip_Code":"93308","County":"Kern","State":"CA","Legend":"COMP","Comments":" "},"geometry":{"type":"Point","coordinates":[-118.96439163111388,35.420536118724335]}},{"type":"Feature","properties":{"OBJECTID":91,"Gas_Station_ID":"NGS0834","MSID":" ","Name":"Dai/Oildale Cogen","Name_Confirm_Status":"Yes","Name_Source":"Cec Power Plant","Alias":" ","Station_Type":"COMP","Owner":"Diamond Energy","Map_Owner":"Other","Postal_City_Name":"Bakersfield","Zip_Code":"93308","County":"Kern","State":"CA","Legend":"COMP","Comments":" "},"geometry":{"type":"Point","coordinates":[-119.0127990951613,35.44076027797902]}},{"type":"Feature","properties":{"OBJECTID":92,"Gas_Station_ID":"NGS0843","MSID":" ","Name":"Gibson-Meridian","Name_Confirm_Status":"No","Name_Source":"Street Intersection","Alias":" ","Station_Type":"COMP","Owner":"PG&E","Map_Owner":"PG&E","Postal_City_Name":"Bakersfield","Zip_Code":"93308","County":"Kern","State":"CA","Legend":"COMP","Comments":" "},"geometry":{"type":"Point","coordinates":[-119.05280454886156,35.392890146532174]}},{"type":"Feature","properties":{"OBJECTID":93,"Gas_Station_ID":"NGS0783","MSID":" ","Name":"Mannel-Merced","Name_Confirm_Status":"No","Name_Source":"Street","Alias":" ","Station_Type":"COMP","Owner":"Chevron","Map_Owner":"Other","Postal_City_Name":"Shafter","Zip_Code":"93263","County":"Kern","State":"CA","Legend":"COMP","Comments":" "},"geometry":{"type":"Point","coordinates":[-119.2723512544562,35.52787996372735]}},{"type":"Feature","properties":{"OBJECTID":94,"Gas_Station_ID":"NGS0781","MSID":" ","Name":"Celeron","Name_Confirm_Status":"Yes","Name_Source":"Cec Substation","Alias":" ","Station_Type":"COMP","Owner":"Seneca Resources","Map_Owner":"Other","Postal_City_Name":"Mc Kittrick","Zip_Code":"93251","County":"Kern","State":"CA","Legend":"COMP","Comments":" "},"geometry":{"type":"Point","coordinates":[-119.7582943254083,35.47399307663652]}},{"type":"Feature","properties":{"OBJECTID":95,"Gas_Station_ID":"NGS0784","MSID":" ","Name":"West S1De 1","Name_Confirm_Status":"No","Name_Source":"Street","Alias":" ","Station_Type":"COMP","Owner":"Chevron","Map_Owner":"Other","Postal_City_Name":"Mc Kittrick","Zip_Code":"93251","County":"Kern","State":"CA","Legend":"COMP","Comments":" "},"geometry":{"type":"Point","coordinates":[-119.62986409972387,35.32172053802355]}},{"type":"Feature","properties":{"OBJECTID":96,"Gas_Station_ID":"NGS0787","MSID":" ","Name":"Mckittrick Cogen","Name_Confirm_Status":"Yes","Name_Source":"Cec Power Plant","Alias":" ","Station_Type":"COMP","Owner":"El Paso","Map_Owner":"Other","Postal_City_Name":"Mc Kittrick","Zip_Code":"93251","County":"Kern","State":"CA","Legend":"COMP","Comments":" "},"geometry":{"type":"Point","coordinates":[-119.66191828952844,35.31945534015125]}},{"type":"Feature","properties":{"OBJECTID":97,"Gas_Station_ID":"NGS0837","MSID":" ","Name":"Bear Mt. Ltd","Name_Confirm_Status":"Yes","Name_Source":"Cec Power Plant","Alias":" ","Station_Type":"COMP","Owner":"El Paso","Map_Owner":"Other","Postal_City_Name":"Bakersfield","Zip_Code":"93306","County":"Kern","State":"CA","Legend":"COMP","Comments":" "},"geometry":{"type":"Point","coordinates":[-118.92647329860304,35.41917336469752]}},{"type":"Feature","properties":{"OBJECTID":98,"Gas_Station_ID":"NGS0855","MSID":" ","Name":"Tejon Hills","Name_Confirm_Status":"No","Name_Source":"Topo","Alias":" ","Station_Type":"COMP","Owner":"Mojave Pipeline","Map_Owner":"Other","Postal_City_Name":"Tehachapi","Zip_Code":"93561","County":"Kern","State":"CA","Legend":"COMP","Comments":" "},"geometry":{"type":"Point","coordinates":[-118.6880403224358,35.08063942895712]}},{"type":"Feature","properties":{"OBJECTID":99,"Gas_Station_ID":"NGS0718","MSID":" ","Name":"Hinkley","Name_Confirm_Status":"Yes","Name_Source":"PG&E 2000","Alias":" ","Station_Type":"COMP","Owner":"PG&E","Map_Owner":"PG&E","Postal_City_Name":"Hinkley","Zip_Code":"92347","County":"San Bernardino","State":"CA","Legend":"COMP","Comments":" "},"geometry":{"type":"Point","coordinates":[-117.16020366670134,34.901971192432704]}},{"type":"Feature","properties":{"OBJECTID":100,"Gas_Station_ID":"NGS0797","MSID":" ","Name":"Midway-Sunset","Name_Confirm_Status":"Yes","Name_Source":"Cec Power Plant","Alias":" ","Station_Type":"COMP","Owner":"Midway Sunset","Map_Owner":"Other","Postal_City_Name":"Fellows","Zip_Code":"93224","County":"Kern","State":"CA","Legend":"COMP","Comments":" "},"geometry":{"type":"Point","coordinates":[-119.62921438358974,35.22732168544508]}},{"type":"Feature","properties":{"OBJECTID":101,"Gas_Station_ID":"NGS0925","MSID":" ","Name":"Sundoen","Name_Confirm_Status":"No","Name_Source":"Street","Alias":" ","Station_Type":"COMP","Owner":"SoCal Gas","Map_Owner":"SoCal Gas","Postal_City_Name":"Newberry Springs","Zip_Code":"92365","County":"San Bernardino","State":"CA","Legend":"COMP","Comments":" "},"geometry":{"type":"Point","coordinates":[-116.59410334799884,34.78031475274393]}},{"type":"Feature","properties":{"OBJECTID":102,"Gas_Station_ID":"NGS0735","MSID":" ","Name":"Needles","Name_Confirm_Status":"Yes","Name_Source":"PG&E 2000","Alias":" ","Station_Type":"COMP","Owner":"PG&E","Map_Owner":"PG&E","Postal_City_Name":"Needles","Zip_Code":"92363","County":"San Bernardino","State":"CA","Legend":"COMP","Comments":" "},"geometry":{"type":"Point","coordinates":[-114.61164975613347,34.69388374748567]}},{"type":"Feature","properties":{"OBJECTID":103,"Gas_Station_ID":"NGS0736","MSID":" ","Name":"Topock","Name_Confirm_Status":"Yes","Name_Source":"PG&E 2000","Alias":" ","Station_Type":"COMP","Owner":"PG&E","Map_Owner":"PG&E","Postal_City_Name":"Needles","Zip_Code":"92363","County":"San Bernardino","State":"CA","Legend":"COMP","Comments":" "},"geometry":{"type":"Point","coordinates":[-114.49074422233129,34.71489729334242]}},{"type":"Feature","properties":{"OBJECTID":104,"Gas_Station_ID":"NGS0853","MSID":" ","Name":"Pastoria Energy Facility","Name_Confirm_Status":"Yes","Name_Source":"Cec Power Plant","Alias":" ","Station_Type":"COMP","Owner":"CPN","Map_Owner":"Other","Postal_City_Name":"Rosamond","Zip_Code":"93560","County":"Kern","State":"CA","Legend":"COMP","Comments":" "},"geometry":{"type":"Point","coordinates":[-118.8438949686352,34.956154328746095]}},{"type":"Feature","properties":{"OBJECTID":105,"Gas_Station_ID":"NGS0932","MSID":" ","Name":"Koala-Rancho","Name_Confirm_Status":"No","Name_Source":"Street Intersection","Alias":" ","Station_Type":"COMP","Owner":"SoCal Gas","Map_Owner":"SoCal Gas","Postal_City_Name":"Adelanto","Zip_Code":"92301","County":"San Bernardino","State":"CA","Legend":"COMP","Comments":" "},"geometry":{"type":"Point","coordinates":[-117.45039919663682,34.55702835829536]}},{"type":"Feature","properties":{"OBJECTID":106,"Gas_Station_ID":"NGS0944","MSID":" ","Name":"High Desert","Name_Confirm_Status":"No","Name_Source":"Cec Power Plant","Alias":" ","Station_Type":"COMP","Owner":"Tenaska","Map_Owner":"Other","Postal_City_Name":"Adelanto","Zip_Code":"92301","County":"San Bernardino","State":"CA","Legend":"COMP","Comments":" "},"geometry":{"type":"Point","coordinates":[-117.36414261394953,34.59523143313865]}},{"type":"Feature","properties":{"OBJECTID":107,"Gas_Station_ID":"NGS0872","MSID":" ","Name":"City Of Lompoc","Name_Confirm_Status":"Yes","Name_Source":"Cec Substation","Alias":" ","Station_Type":"COMP","Owner":"City Of Lompoc","Map_Owner":"Other","Postal_City_Name":"Lompoc","Zip_Code":"93436","County":"Santa Barbara","State":"CA","Legend":"COMP","Comments":" "},"geometry":{"type":"Point","coordinates":[-120.43308402869611,34.72387092379462]}},{"type":"Feature","properties":{"OBJECTID":108,"Gas_Station_ID":"NGS0868","MSID":" ","Name":"Gaviota","Name_Confirm_Status":"Yes","Name_Source":"Cec Power Plant","Alias":" ","Station_Type":"COMP","Owner":"Point Arguello","Map_Owner":"Other","Postal_City_Name":"Goleta","Zip_Code":"93117","County":"Santa Barbara","State":"CA","Legend":"COMP","Comments":" "},"geometry":{"type":"Point","coordinates":[-120.20498918875673,34.47516703561877]}},{"type":"Feature","properties":{"OBJECTID":109,"Gas_Station_ID":"NGS0878","MSID":" ","Name":"More Ranch","Name_Confirm_Status":"No","Name_Source":"Street","Alias":" ","Station_Type":"COMP","Owner":"SoCal Gas","Map_Owner":"SoCal Gas","Postal_City_Name":"Santa Barbara","Zip_Code":"93111","County":"Santa Barbara","State":"CA","Legend":"COMP","Comments":" "},"geometry":{"type":"Point","coordinates":[-119.81891901638484,34.421707871266676]}},{"type":"Feature","properties":{"OBJECTID":110,"Gas_Station_ID":"NGS0978","MSID":" ","Name":"Mad-Hope Canyon","Name_Confirm_Status":"No","Name_Source":"Street Intersection","Alias":" ","Station_Type":"COMP","Owner":"SoCal Gas","Map_Owner":"SoCal Gas","Postal_City_Name":"Santa Clarita","Zip_Code":"91350","County":"Los Angeles","State":"CA","Legend":"COMP","Comments":" "},"geometry":{"type":"Point","coordinates":[-118.49810275753424,34.39549150857011]}},{"type":"Feature","properties":{"OBJECTID":111,"Gas_Station_ID":"NGS0983","MSID":" ","Name":"Newhall-Pine","Name_Confirm_Status":"No","Name_Source":"Street Intersection","Alias":" ","Station_Type":"COMP","Owner":"SoCal Gas","Map_Owner":"SoCal Gas","Postal_City_Name":"Newhall","Zip_Code":"91321","County":"Los Angeles","State":"CA","Legend":"COMP","Comments":" "},"geometry":{"type":"Point","coordinates":[-118.52138828650838,34.37399742908416]}},{"type":"Feature","properties":{"OBJECTID":112,"Gas_Station_ID":"NGS0984","MSID":" ","Name":"Aes Placerita","Name_Confirm_Status":"Yes","Name_Source":"Cec Power Plant","Alias":" ","Station_Type":"COMP","Owner":"Aes","Map_Owner":"Other","Postal_City_Name":"Newhall","Zip_Code":"91321","County":"Los Angeles","State":"CA","Legend":"COMP","Comments":" "},"geometry":{"type":"Point","coordinates":[-118.5004683180801,34.38149591431369]}},{"type":"Feature","properties":{"OBJECTID":113,"Gas_Station_ID":"NGS0990","MSID":" ","Name":"Limekiln Canyon","Name_Confirm_Status":"No","Name_Source":"Street","Alias":" ","Station_Type":"COMP","Owner":"SoCal Gas","Map_Owner":"SoCal Gas","Postal_City_Name":"Chatsworth","Zip_Code":"91311","County":"Los Angeles","State":"CA","Legend":"COMP","Comments":" "},"geometry":{"type":"Point","coordinates":[-118.55157390973456,34.30789958489297]}},{"type":"Feature","properties":{"OBJECTID":114,"Gas_Station_ID":"NGS0890","MSID":" ","Name":"Unocal Rincon Cogen","Name_Confirm_Status":"Yes","Name_Source":"Cec Power Plant","Alias":" ","Station_Type":"COMP","Owner":"Unocal","Map_Owner":"Other","Postal_City_Name":"Ventura","Zip_Code":"93001","County":"Ventura","State":"CA","Legend":"COMP","Comments":" "},"geometry":{"type":"Point","coordinates":[-119.42361884780172,34.35580758827529]}},{"type":"Feature","properties":{"OBJECTID":115,"Gas_Station_ID":"NGS0893","MSID":" ","Name":"Mcfarlane","Name_Confirm_Status":"No","Name_Source":"Street","Alias":" ","Station_Type":"COMP","Owner":"SoCal Gas","Map_Owner":"SoCal Gas","Postal_City_Name":"Ventura","Zip_Code":"93001","County":"Ventura","State":"CA","Legend":"COMP","Comments":" "},"geometry":{"type":"Point","coordinates":[-119.29978520404062,34.29788092855542]}},{"type":"Feature","properties":{"OBJECTID":116,"Gas_Station_ID":"NGS0894","MSID":" ","Name":"Texaco Access","Name_Confirm_Status":"No","Name_Source":"Street","Alias":" ","Station_Type":"COMP","Owner":"SoCal Gas","Map_Owner":"SoCal Gas","Postal_City_Name":"Ventura","Zip_Code":"93001","County":"Ventura","State":"CA","Legend":"COMP","Comments":" "},"geometry":{"type":"Point","coordinates":[-119.26974063955578,34.313939222876826]}},{"type":"Feature","properties":{"OBJECTID":117,"Gas_Station_ID":"NGS0898","MSID":" ","Name":"Crimea Fire","Name_Confirm_Status":"No","Name_Source":"Street","Alias":" ","Station_Type":"COMP","Owner":"SoCal Gas","Map_Owner":"SoCal Gas","Postal_City_Name":"Ventura","Zip_Code":"93001","County":"Ventura","State":"CA","Legend":"COMP","Comments":" "},"geometry":{"type":"Point","coordinates":[-119.27360154256188,34.296495512541114]}},{"type":"Feature","properties":{"OBJECTID":118,"Gas_Station_ID":"NGS0909","MSID":" ","Name":"Camarillo Nug","Name_Confirm_Status":"Yes","Name_Source":"Cec Power Plant","Alias":" ","Station_Type":"COMP","Owner":"Energy Initiatives","Map_Owner":"Other","Postal_City_Name":"Camarillo","Zip_Code":"93012","County":"Ventura","State":"CA","Legend":"COMP","Comments":" "},"geometry":{"type":"Point","coordinates":[-119.0478722297868,34.16207442965506]}},{"type":"Feature","properties":{"OBJECTID":119,"Gas_Station_ID":"NGS0903","MSID":" ","Name":"Sithe Energies","Name_Confirm_Status":"Yes","Name_Source":"Cec Power Plant","Alias":" ","Station_Type":"COMP","Owner":"Sithe Energies","Map_Owner":"Other","Postal_City_Name":"Oxnard","Zip_Code":"93030","County":"Ventura","State":"CA","Legend":"COMP","Comments":" "},"geometry":{"type":"Point","coordinates":[-119.16659642070776,34.19569151907836]}},{"type":"Feature","properties":{"OBJECTID":120,"Gas_Station_ID":"NGS0910","MSID":" ","Name":"Oxnard 1 & 2","Name_Confirm_Status":"Yes","Name_Source":"Cec Power Plant","Alias":" ","Station_Type":"COMP","Owner":"Procter & Gamble","Map_Owner":"Other","Postal_City_Name":"Oxnard","Zip_Code":"93030","County":"Ventura","State":"CA","Legend":"COMP","Comments":" "},"geometry":{"type":"Point","coordinates":[-119.13880998531474,34.21125571571472]}},{"type":"Feature","properties":{"OBJECTID":121,"Gas_Station_ID":"NGS0896","MSID":" ","Name":"Mandalay","Name_Confirm_Status":"Yes","Name_Source":"Cec Power Plant","Alias":" ","Station_Type":"COMP","Owner":"Reliant Energy","Map_Owner":"Other","Postal_City_Name":"Oxnard","Zip_Code":"93035","County":"Ventura","State":"CA","Legend":"COMP","Comments":" "},"geometry":{"type":"Point","coordinates":[-119.25057712707508,34.206481267516956]}},{"type":"Feature","properties":{"OBJECTID":122,"Gas_Station_ID":"NGS0902","MSID":" ","Name":"Ormond Beach","Name_Confirm_Status":"Yes","Name_Source":"Cec Power Plant","Alias":" ","Station_Type":"COMP","Owner":"Reliant Energy","Map_Owner":"Other","Postal_City_Name":"Oxnard","Zip_Code":"93033","County":"Ventura","State":"CA","Legend":"COMP","Comments":" "},"geometry":{"type":"Point","coordinates":[-119.16810747611358,34.130322322769366]}},{"type":"Feature","properties":{"OBJECTID":123,"Gas_Station_ID":"NGS0955","MSID":" ","Name":"Grapeland Peaker","Name_Confirm_Status":"Yes","Name_Source":"Cec Power Plant","Alias":" ","Station_Type":"COMP","Owner":"SCE","Map_Owner":"Other","Postal_City_Name":"Rancho Cucamonga","Zip_Code":"91739","County":"San Bernardino","State":"CA","Legend":"COMP","Comments":" "},"geometry":{"type":"Point","coordinates":[-117.52722448677284,34.09120906309172]}},{"type":"Feature","properties":{"OBJECTID":124,"Gas_Station_ID":"NGS1005","MSID":" ","Name":"Boradway","Name_Confirm_Status":"Yes","Name_Source":"Cec Power Plant","Alias":" ","Station_Type":"COMP","Owner":"City Of Pasadena","Map_Owner":"Other","Postal_City_Name":"South Pasadena","Zip_Code":"91030","County":"Los Angeles","State":"CA","Legend":"COMP","Comments":" "},"geometry":{"type":"Point","coordinates":[-118.1477199666589,34.125979863235195]}},{"type":"Feature","properties":{"OBJECTID":125,"Gas_Station_ID":"NGS0957","MSID":" ","Name":"Mt.View Power Co., San Bernardino","Name_Confirm_Status":"Yes","Name_Source":"Cec Power Plant","Alias":" ","Station_Type":"COMP","Owner":"Mountainview Power","Map_Owner":"Other","Postal_City_Name":"San Bernardino","Zip_Code":"92408","County":"San Bernardino","State":"CA","Legend":"COMP","Comments":" "},"geometry":{"type":"Point","coordinates":[-117.24174261646252,34.081784493364545]}},{"type":"Feature","properties":{"OBJECTID":126,"Gas_Station_ID":"NGS0963","MSID":" ","Name":"Chino Nug","Name_Confirm_Status":"Yes","Name_Source":"Cec Power Plant","Alias":" ","Station_Type":"COMP","Owner":"Energy Initiatives","Map_Owner":"Other","Postal_City_Name":"Chino","Zip_Code":"91710","County":"San Bernardino","State":"CA","Legend":"COMP","Comments":" "},"geometry":{"type":"Point","coordinates":[-117.68085277293866,33.989641414678225]}},{"type":"Feature","properties":{"OBJECTID":127,"Gas_Station_ID":"NGS1090","MSID":" ","Name":"North Palm Springs","Name_Confirm_Status":"No","Name_Source":"City","Alias":" ","Station_Type":"COMP","Owner":"SoCal Gas","Map_Owner":"SoCal Gas","Postal_City_Name":"Desert Hot Springs","Zip_Code":"92240","County":"Riverside","State":"CA","Legend":"COMP","Comments":" "},"geometry":{"type":"Point","coordinates":[-116.55295404553392,33.911195685119836]}},{"type":"Feature","properties":{"OBJECTID":128,"Gas_Station_ID":"NGS1008","MSID":" ","Name":"Kenneth Hahn","Name_Confirm_Status":"No","Name_Source":"Recreation Area","Alias":" ","Station_Type":"COMP","Owner":"SoCal Gas","Map_Owner":"SoCal Gas","Postal_City_Name":"Los Angeles","Zip_Code":"90008","County":"Los Angeles","State":"CA","Legend":"COMP","Comments":" "},"geometry":{"type":"Point","coordinates":[-118.37113469448887,34.00477687471051]}},{"type":"Feature","properties":{"OBJECTID":129,"Gas_Station_ID":"NGS1095","MSID":" ","Name":"Corona  Cogen","Name_Confirm_Status":"Yes","Name_Source":"Cec Power Plant","Alias":" ","Station_Type":"COMP","Owner":"Corona Energy","Map_Owner":"Other","Postal_City_Name":"Corona","Zip_Code":"92880","County":"Riverside","State":"CA","Legend":"COMP","Comments":" "},"geometry":{"type":"Point","coordinates":[-117.58028924358057,33.89166920819123]}},{"type":"Feature","properties":{"OBJECTID":130,"Gas_Station_ID":"NGS1010","MSID":" ","Name":"Scattergood","Name_Confirm_Status":"Yes","Name_Source":"Cec Power Plant","Alias":" ","Station_Type":"COMP","Owner":"LADWP","Map_Owner":"Other","Postal_City_Name":"Playa Del Rey","Zip_Code":"90293","County":"Los Angeles","State":"CA","Legend":"COMP","Comments":" "},"geometry":{"type":"Point","coordinates":[-118.42762283309796,33.918432788123205]}},{"type":"Feature","properties":{"OBJECTID":131,"Gas_Station_ID":"NGS1025","MSID":" ","Name":"Falmouth-Cabora","Name_Confirm_Status":"No","Name_Source":"Street Intersection","Alias":" ","Station_Type":"COMP","Owner":"SoCal Gas","Map_Owner":"SoCal Gas","Postal_City_Name":"Playa Del Rey","Zip_Code":"90293","County":"Los Angeles","State":"CA","Legend":"COMP","Comments":" "},"geometry":{"type":"Point","coordinates":[-118.4380789393783,33.96277323095589]}},{"type":"Feature","properties":{"OBJECTID":132,"Gas_Station_ID":"NGS1054","MSID":" ","Name":"Virginia 2","Name_Confirm_Status":"No","Name_Source":"Street","Alias":" ","Station_Type":"COMP","Owner":"SoCal Gas","Map_Owner":"SoCal Gas","Postal_City_Name":"Moreno Valley","Zip_Code":"92555","County":"Riverside","State":"CA","Legend":"COMP","Comments":" "},"geometry":{"type":"Point","coordinates":[-117.12211464353604,33.91053237301947]}},{"type":"Feature","properties":{"OBJECTID":133,"Gas_Station_ID":"NGS1011","MSID":" ","Name":"El Segundo","Name_Confirm_Status":"Yes","Name_Source":"Cec Power Plant","Alias":" ","Station_Type":"COMP","Owner":"NRG Energy","Map_Owner":"Other","Postal_City_Name":"El Segundo","Zip_Code":"90245","County":"Los Angeles","State":"CA","Legend":"COMP","Comments":" "},"geometry":{"type":"Point","coordinates":[-118.42457789965908,33.90987425472367]}},{"type":"Feature","properties":{"OBJECTID":134,"Gas_Station_ID":"NGS1016","MSID":" ","Name":"Redondo Beach Gen. Sta.","Name_Confirm_Status":"Yes","Name_Source":"Cec Power Plant","Alias":" ","Station_Type":"COMP","Owner":"Bear Energy","Map_Owner":"Other","Postal_City_Name":"Redondo Beach","Zip_Code":"90277","County":"Los Angeles","State":"CA","Legend":"COMP","Comments":" "},"geometry":{"type":"Point","coordinates":[-118.39418003534932,33.85056550130938]}},{"type":"Feature","properties":{"OBJECTID":135,"Gas_Station_ID":"NGS1022","MSID":" ","Name":"Thums Long Beach Co","Name_Confirm_Status":"Yes","Name_Source":"Company","Alias":" ","Station_Type":"COMP","Owner":"Thums","Map_Owner":"Other","Postal_City_Name":"Long Beach","Zip_Code":"90813","County":"Los Angeles","State":"CA","Legend":"COMP","Comments":" "},"geometry":{"type":"Point","coordinates":[-118.21419658513275,33.76841217208313]}},{"type":"Feature","properties":{"OBJECTID":136,"Gas_Station_ID":"NGS1023","MSID":" ","Name":"Pico-Broadway","Name_Confirm_Status":"No","Name_Source":"Street Intersection","Alias":" ","Station_Type":"COMP","Owner":"Thums","Map_Owner":"Other","Postal_City_Name":"Long Beach","Zip_Code":"90802","County":"Los Angeles","State":"CA","Legend":"COMP","Comments":" "},"geometry":{"type":"Point","coordinates":[-118.2100305756325,33.76900313450617]}},{"type":"Feature","properties":{"OBJECTID":137,"Gas_Station_ID":"NGS1031","MSID":" ","Name":"Arrowhead","Name_Confirm_Status":"No","Name_Source":"Street","Alias":" ","Station_Type":"COMP","Owner":"SoCal Gas","Map_Owner":"SoCal Gas","Postal_City_Name":"Blythe","Zip_Code":"92225","County":"Riverside","State":"CA","Legend":"COMP","Comments":" "},"geometry":{"type":"Point","coordinates":[-114.64308941552096,33.604146066882684]}},{"type":"Feature","properties":{"OBJECTID":138,"Gas_Station_ID":"NGS1112","MSID":" ","Name":"Encina","Name_Confirm_Status":"Yes","Name_Source":"Cec Power Plant","Alias":" ","Station_Type":"COMP","Owner":"NRG Energy","Map_Owner":"Other","Postal_City_Name":"Carlsbad","Zip_Code":"92008","County":"San Diego","State":"CA","Legend":"COMP","Comments":" "},"geometry":{"type":"Point","coordinates":[-117.33622564788624,33.135791514134205]}},{"type":"Feature","properties":{"OBJECTID":139,"Gas_Station_ID":"NGS1045","MSID":" ","Name":"Rockwood","Name_Confirm_Status":"Yes","Name_Source":"Cec Power Plant","Alias":" ","Station_Type":"COMP","Owner":"IID","Map_Owner":"Other","Postal_City_Name":"Brawley","Zip_Code":"92227","County":"Imperial","State":"CA","Legend":"COMP","Comments":" "},"geometry":{"type":"Point","coordinates":[-115.53462499442148,32.96793444193868]}},{"type":"Feature","properties":{"OBJECTID":140,"Gas_Station_ID":"NGS1113","MSID":" ","Name":"Mmc Escondido","Name_Confirm_Status":"Yes","Name_Source":"Cec Power Plant","Alias":" ","Station_Type":"COMP","Owner":"Mmc Energy","Map_Owner":"Other","Postal_City_Name":"Escondido","Zip_Code":"92029","County":"San Diego","State":"CA","Legend":"COMP","Comments":" "},"geometry":{"type":"Point","coordinates":[-117.11738940994256,33.12216209566422]}},{"type":"Feature","properties":{"OBJECTID":141,"Gas_Station_ID":"NGS1098","MSID":" ","Name":"Brawley","Name_Confirm_Status":"Yes","Name_Source":"Cec Power Plant","Alias":" ","Station_Type":"COMP","Owner":"IID","Map_Owner":"Other","Postal_City_Name":"Imperial","Zip_Code":"92251","County":"Imperial","State":"CA","Legend":"COMP","Comments":" "},"geometry":{"type":"Point","coordinates":[-115.51238519605371,32.90383837121631]}},{"type":"Feature","properties":{"OBJECTID":142,"Gas_Station_ID":"NGS1046","MSID":" ","Name":"El Centro","Name_Confirm_Status":"Yes","Name_Source":"Cec Power Plant","Alias":" ","Station_Type":"COMP","Owner":"IID","Map_Owner":"Other","Postal_City_Name":"El Centro","Zip_Code":"92243","County":"Imperial","State":"CA","Legend":"COMP","Comments":" "},"geometry":{"type":"Point","coordinates":[-115.53995251350632,32.801763042641994]}},{"type":"Feature","properties":{"OBJECTID":143,"Gas_Station_ID":"NGS1121","MSID":" ","Name":"Wildflower-Larkspur","Name_Confirm_Status":"Yes","Name_Source":"Cec Power Plant","Alias":" ","Station_Type":"COMP","Owner":"Intergen","Map_Owner":"Other","Postal_City_Name":"San Diego","Zip_Code":"92154","County":"San Diego","State":"CA","Legend":"COMP","Comments":" "},"geometry":{"type":"Point","coordinates":[-116.94426198796263,32.56705240893525]}},{"type":"Feature","properties":{"OBJECTID":144,"Gas_Station_ID":"NGS1122","MSID":" ","Name":"Paseo International-Airway","Name_Confirm_Status":"No","Name_Source":"Street Intersection","Alias":" ","Station_Type":"COMP","Owner":"SDG&E","Map_Owner":"SDG&E","Postal_City_Name":"San Diego","Zip_Code":"92154","County":"San Diego","State":"CA","Legend":"COMP","Comments":" "},"geometry":{"type":"Point","coordinates":[-116.94352340105974,32.56252300963213]}},{"type":"Feature","properties":{"OBJECTID":145,"Gas_Station_ID":"NGS1125","MSID":" ","Name":"Otay Mesa Energy Center","Name_Confirm_Status":"Yes","Name_Source":"Cec Power Plant","Alias":" ","Station_Type":"COMP","Owner":"CPN","Map_Owner":"Other","Postal_City_Name":"San Diego","Zip_Code":"92154","County":"San Diego","State":"CA","Legend":"COMP","Comments":" "},"geometry":{"type":"Point","coordinates":[-116.91369248886488,32.5734756139192]}},{"type":"Feature","properties":{"OBJECTID":146,"Gas_Station_ID":"NGS0777","MSID":" ","Name":"Lost Hills 1","Name_Confirm_Status":"No","Name_Source":"Street","Alias":" ","Station_Type":"COMP & MTR","Owner":"Chevron","Map_Owner":"Other","Postal_City_Name":"Lost Hills","Zip_Code":"93249","County":"Kern","State":"CA","Legend":"COMP","Comments":" "},"geometry":{"type":"Point","coordinates":[-119.69713466233186,35.586390921406036]}},{"type":"Feature","properties":{"OBJECTID":147,"Gas_Station_ID":"NGS0819","MSID":" ","Name":"Rosedale","Name_Confirm_Status":"No","Name_Source":"Street","Alias":" ","Station_Type":"COMP & STR","Owner":"Chevron","Map_Owner":"Other","Postal_City_Name":"Bakersfield","Zip_Code":"93308","County":"Kern","State":"CA","Legend":"COMP","Comments":" "},"geometry":{"type":"Point","coordinates":[-119.07250136427754,35.38000178071894]}},{"type":"Feature","properties":{"OBJECTID":148,"Gas_Station_ID":"NGS0844","MSID":" ","Name":"Sekr Cogen","Name_Confirm_Status":"Yes","Name_Source":"Cec Power Plant","Alias":" ","Station_Type":"COMP & STR","Owner":"Texaco","Map_Owner":"Other","Postal_City_Name":"Bakersfield","Zip_Code":"93308","County":"Kern","State":"CA","Legend":"COMP","Comments":" "},"geometry":{"type":"Point","coordinates":[-119.076882869909,35.372979515747986]}},{"type":"Feature","properties":{"OBJECTID":149,"Gas_Station_ID":"NGS0847","MSID":" ","Name":"Millux 2","Name_Confirm_Status":"No","Name_Source":"Street","Alias":" ","Station_Type":"COMP & STR","Owner":"PG&E","Map_Owner":"PG&E","Postal_City_Name":"Bakersfield","Zip_Code":"93311","County":"Kern","State":"CA","Legend":"COMP","Comments":" "},"geometry":{"type":"Point","coordinates":[-119.16043610314205,35.178089861606615]}},{"type":"Feature","properties":{"OBJECTID":150,"Gas_Station_ID":"NGS0676","MSID":" ","Name":"Union Oil","Name_Confirm_Status":"Yes","Name_Source":"Cec Substation","Alias":" ","Station_Type":"COMP & STR","Owner":"Conocophillips","Map_Owner":"Other","Postal_City_Name":"Arroyo Grande","Zip_Code":"93420","County":"San Luis Obispo","State":"CA","Legend":"COMP","Comments":" "},"geometry":{"type":"Point","coordinates":[-120.58906311134326,35.04017442576738]}},{"type":"Feature","properties":{"OBJECTID":151,"Gas_Station_ID":"NGS0985","MSID":" ","Name":"Placerita Unit I & 2","Name_Confirm_Status":"Yes","Name_Source":"Cec Power Plant","Alias":" ","Station_Type":"COMP & STR","Owner":"Arco","Map_Owner":"Other","Postal_City_Name":"Newhall","Zip_Code":"91321","County":"Los Angeles","State":"CA","Legend":"COMP","Comments":" "},"geometry":{"type":"Point","coordinates":[-118.4956943073504,34.38508274007896]}},{"type":"Feature","properties":{"OBJECTID":152,"Gas_Station_ID":"NGS0992","MSID":" ","Name":"Valley","Name_Confirm_Status":"Yes","Name_Source":"Cec Power Plant","Alias":" ","Station_Type":"COMP & STR","Owner":"LADWP","Map_Owner":"Other","Postal_City_Name":"Sun Valley","Zip_Code":"91352","County":"Los Angeles","State":"CA","Legend":"COMP","Comments":" "},"geometry":{"type":"Point","coordinates":[-118.3902583991758,34.24561610534384]}},{"type":"Feature","properties":{"OBJECTID":153,"Gas_Station_ID":"NGS1014","MSID":" ","Name":"Tottance Refinery","Name_Confirm_Status":"Yes","Name_Source":"Cec Power Plant","Alias":" ","Station_Type":"COMP & STR","Owner":"ExxonMobil","Map_Owner":"Other","Postal_City_Name":"Torrance","Zip_Code":"90503","County":"Los Angeles","State":"CA","Legend":"COMP","Comments":" "},"geometry":{"type":"Point","coordinates":[-118.33059968222032,33.85156633701344]}},{"type":"Feature","properties":{"OBJECTID":154,"Gas_Station_ID":"NGS1012","MSID":" ","Name":"Watson Cogen","Name_Confirm_Status":"Yes","Name_Source":"Cec Power Plant","Alias":" ","Station_Type":"COMP & STR","Owner":"Watson","Map_Owner":"Other","Postal_City_Name":"Carson","Zip_Code":"90745","County":"Los Angeles","State":"CA","Legend":"COMP","Comments":" "},"geometry":{"type":"Point","coordinates":[-118.24368139326069,33.81911860387817]}},{"type":"Feature","properties":{"OBJECTID":155,"Gas_Station_ID":"NGS1018","MSID":" ","Name":"Rhone-Poulenc-Dominguez","Name_Confirm_Status":"No","Name_Source":"Cec Power Plant","Alias":" ","Station_Type":"COMP & STR","Owner":"Rhone-Poulenc Basic Chemicals","Map_Owner":"Other","Postal_City_Name":"Long Beach","Zip_Code":"90810","County":"Los Angeles","State":"CA","Legend":"COMP","Comments":" "},"geometry":{"type":"Point","coordinates":[-118.23309814190856,33.84326393063301]}},{"type":"Feature","properties":{"OBJECTID":156,"Gas_Station_ID":"NGS1028","MSID":" ","Name":"Alamitos Gen. Sta.","Name_Confirm_Status":"Yes","Name_Source":"Cec Power Plant","Alias":" ","Station_Type":"COMP & STR","Owner":"Bear Energy","Map_Owner":"Other","Postal_City_Name":"Long Beach","Zip_Code":"90803","County":"Los Angeles","State":"CA","Legend":"COMP","Comments":" "},"geometry":{"type":"Point","coordinates":[-118.10093996984509,33.76664856650161]}},{"type":"Feature","properties":{"OBJECTID":157,"Gas_Station_ID":"NGS1029","MSID":" ","Name":"Haynes","Name_Confirm_Status":"Yes","Name_Source":"Cec Power Plant","Alias":" ","Station_Type":"COMP & STR","Owner":"LADWP","Map_Owner":"Other","Postal_City_Name":"Long Beach","Zip_Code":"90803","County":"Los Angeles","State":"CA","Legend":"COMP","Comments":" "},"geometry":{"type":"Point","coordinates":[-118.09503100864184,33.76533242887409]}},{"type":"Feature","properties":{"OBJECTID":158,"Gas_Station_ID":"NGS1061","MSID":" ","Name":"Huntington Beach","Name_Confirm_Status":"No","Name_Source":"Cec Power Plant","Alias":" ","Station_Type":"COMP & STR","Owner":"Aes","Map_Owner":"Other","Postal_City_Name":"Huntington Beach","Zip_Code":"92646","County":"Orange","State":"CA","Legend":"COMP","Comments":" "},"geometry":{"type":"Point","coordinates":[-117.97864030584348,33.64480426288745]}},{"type":"Feature","properties":{"OBJECTID":159,"Gas_Station_ID":"NGS0057","MSID":" ","Name":"Corning North Dome","Name_Confirm_Status":"Yes","Name_Source":"PG&E 2000","Alias":" ","Station_Type":"DEHY","Owner":"PG&E","Map_Owner":"PG&E","Postal_City_Name":"Corning","Zip_Code":"96021","County":"Tehama","State":"CA","Legend":"DEHY","Comments":" "},"geometry":{"type":"Point","coordinates":[-122.15602834785048,39.96102554021596]}},{"type":"Feature","properties":{"OBJECTID":160,"Gas_Station_ID":"NGS0100","MSID":" ","Name":"County Rd 46","Name_Confirm_Status":"No","Name_Source":"Street","Alias":" ","Station_Type":"DEHY","Owner":"PG&E","Map_Owner":"PG&E","Postal_City_Name":"Willows","Zip_Code":"95988","County":"Glenn","State":"CA","Legend":"DEHY","Comments":" "},"geometry":{"type":"Point","coordinates":[-122.07238519918954,39.54337581316963]}},{"type":"Feature","properties":{"OBJECTID":161,"Gas_Station_ID":"NGS0101","MSID":" ","Name":"Sprague","Name_Confirm_Status":"Yes","Name_Source":"PG&E 2000","Alias":" ","Station_Type":"DEHY","Owner":"PG&E","Map_Owner":"PG&E","Postal_City_Name":"Willows","Zip_Code":"95988","County":"Glenn","State":"CA","Legend":"DEHY","Comments":" "},"geometry":{"type":"Point","coordinates":[-122.07852025816824,39.540907523616305]}},{"type":"Feature","properties":{"OBJECTID":162,"Gas_Station_ID":"NGS0125","MSID":" ","Name":"Greenleaf 2","Name_Confirm_Status":"Yes","Name_Source":"PG&E 2000","Alias":" ","Station_Type":"DEHY","Owner":"PG&E","Map_Owner":"PG&E","Postal_City_Name":"Yuba City","Zip_Code":"95993","County":"Sutter","State":"CA","Legend":"DEHY","Comments":" "},"geometry":{"type":"Point","coordinates":[-121.74469773276796,39.12785353118646]}},{"type":"Feature","properties":{"OBJECTID":163,"Gas_Station_ID":"NGS0127","MSID":" ","Name":"Greenleaf 1","Name_Confirm_Status":"Yes","Name_Source":"PG&E 2000","Alias":" ","Station_Type":"DEHY","Owner":"PG&E","Map_Owner":"PG&E","Postal_City_Name":"Yuba City","Zip_Code":"95993","County":"Sutter","State":"CA","Legend":"DEHY","Comments":" "},"geometry":{"type":"Point","coordinates":[-121.70874115888688,39.06854705955886]}},{"type":"Feature","properties":{"OBJECTID":164,"Gas_Station_ID":"NGS0249","MSID":" ","Name":"County Rd 87 1","Name_Confirm_Status":"No","Name_Source":"Street","Alias":" ","Station_Type":"DEHY","Owner":"PG&E","Map_Owner":"PG&E","Postal_City_Name":"Winters","Zip_Code":"95694","County":"Yolo","State":"CA","Legend":"DEHY","Comments":" "},"geometry":{"type":"Point","coordinates":[-122.00164718802154,38.54748526407076]}},{"type":"Feature","properties":{"OBJECTID":165,"Gas_Station_ID":"NGS0304","MSID":" ","Name":"Line 114","Name_Confirm_Status":"Yes","Name_Source":"PG&E 2000","Alias":" ","Station_Type":"DEHY","Owner":"PG&E","Map_Owner":"PG&E","Postal_City_Name":"Rio Vista","Zip_Code":"94571","County":"Solano","State":"CA","Legend":"DEHY","Comments":" "},"geometry":{"type":"Point","coordinates":[-121.72609554121688,38.12950970044797]}},{"type":"Feature","properties":{"OBJECTID":166,"Gas_Station_ID":"NGS0308","MSID":" ","Name":"Tuscany","Name_Confirm_Status":"No","Name_Source":"Street","Alias":" ","Station_Type":"DEHY","Owner":"PG&E","Map_Owner":"PG&E","Postal_City_Name":"Rio Vista","Zip_Code":"94571","County":"Solano","State":"CA","Legend":"DEHY","Comments":" "},"geometry":{"type":"Point","coordinates":[-121.69972812498256,38.149473585478304]}},{"type":"Feature","properties":{"OBJECTID":167,"Gas_Station_ID":"NGS0297","MSID":" ","Name":"Kirby","Name_Confirm_Status":"Yes","Name_Source":"PG&E 2000","Alias":" ","Station_Type":"DEHY","Owner":"PG&E","Map_Owner":"PG&E","Postal_City_Name":"Suisun City","Zip_Code":"94585","County":"Solano","State":"CA","Legend":"DEHY","Comments":" "},"geometry":{"type":"Point","coordinates":[-121.90275994218752,38.14844009860269]}},{"type":"Feature","properties":{"OBJECTID":168,"Gas_Station_ID":"NGS0301","MSID":" ","Name":"Van Sickle","Name_Confirm_Status":"Yes","Name_Source":"PG&E 2000","Alias":" ","Station_Type":"DEHY","Owner":"PG&E","Map_Owner":"PG&E","Postal_City_Name":"Suisun City","Zip_Code":"94585","County":"Solano","State":"CA","Legend":"DEHY","Comments":" "},"geometry":{"type":"Point","coordinates":[-121.92621540339572,38.10716301123642]}},{"type":"Feature","properties":{"OBJECTID":169,"Gas_Station_ID":"NGS0302","MSID":" ","Name":"Grizzly Island","Name_Confirm_Status":"Yes","Name_Source":"PG&E 2000","Alias":" ","Station_Type":"DEHY","Owner":"PG&E","Map_Owner":"PG&E","Postal_City_Name":"Suisun City","Zip_Code":"94585","County":"Solano","State":"CA","Legend":"DEHY","Comments":" "},"geometry":{"type":"Point","coordinates":[-121.97652442386963,38.12991322880464]}},{"type":"Feature","properties":{"OBJECTID":170,"Gas_Station_ID":"NGS0333","MSID":" ","Name":"Sherman Isalnd 2","Name_Confirm_Status":"Yes","Name_Source":"PG&E 2000","Alias":" ","Station_Type":"DEHY","Owner":"PG&E","Map_Owner":"PG&E","Postal_City_Name":"Rio Vista","Zip_Code":"94571","County":"Sacramento","State":"CA","Legend":"DEHY","Comments":" "},"geometry":{"type":"Point","coordinates":[-121.7198168076072,38.06926643698403]}},{"type":"Feature","properties":{"OBJECTID":171,"Gas_Station_ID":"NGS0371","MSID":" ","Name":"Brentwood","Name_Confirm_Status":"Yes","Name_Source":"PG&E 2000","Alias":" ","Station_Type":"DEHY","Owner":"PG&E","Map_Owner":"PG&E","Postal_City_Name":"Brentwood","Zip_Code":"94513","County":"Contra Costa","State":"CA","Legend":"DEHY","Comments":" "},"geometry":{"type":"Point","coordinates":[-121.71942099305464,37.95531283616206]}},{"type":"Feature","properties":{"OBJECTID":172,"Gas_Station_ID":"NGS0202","MSID":" ","Name":"Point San Pedro","Name_Confirm_Status":"No","Name_Source":"Street","Alias":" ","Station_Type":"DEHY","Owner":"PG&E","Map_Owner":"PG&E","Postal_City_Name":"San Rafael","Zip_Code":"94901","County":"Marin","State":"CA","Legend":"DEHY","Comments":" "},"geometry":{"type":"Point","coordinates":[-122.48697459379316,37.9740115466324]}},{"type":"Feature","properties":{"OBJECTID":173,"Gas_Station_ID":"NGS0558","MSID":" ","Name":"Elkhorn Grade","Name_Confirm_Status":"No","Name_Source":"Street","Alias":" ","Station_Type":"DEHY","Owner":"PG&E","Map_Owner":"PG&E","Postal_City_Name":"Riverdale","Zip_Code":"93656","County":"Fresno","State":"CA","Legend":"DEHY","Comments":" "},"geometry":{"type":"Point","coordinates":[-120.01279109920004,36.47656499464528]}},{"type":"Feature","properties":{"OBJECTID":174,"Gas_Station_ID":"NGS0586","MSID":" ","Name":"Coalinga Nose","Name_Confirm_Status":"Yes","Name_Source":"PG&E 2000","Alias":" ","Station_Type":"DEHY","Owner":"PG&E","Map_Owner":"PG&E","Postal_City_Name":"Coalinga","Zip_Code":"93210","County":"Fresno","State":"CA","Legend":"DEHY","Comments":" "},"geometry":{"type":"Point","coordinates":[-120.28093849532544,36.19467755733618]}},{"type":"Feature","properties":{"OBJECTID":175,"Gas_Station_ID":"NGS0813","MSID":" ","Name":"Kern River","Name_Confirm_Status":"No","Name_Source":"River","Alias":" ","Station_Type":"DEHY","Owner":"Mojave Pipeline","Map_Owner":"Other","Postal_City_Name":"Bakersfield","Zip_Code":"93308","County":"Kern","State":"CA","Legend":"DEHY","Comments":" "},"geometry":{"type":"Point","coordinates":[-118.95652622927312,35.4269819707899]}},{"type":"Feature","properties":{"OBJECTID":176,"Gas_Station_ID":"NGS0836","MSID":" ","Name":"Beardsley Weir","Name_Confirm_Status":"No","Name_Source":"City","Alias":" ","Station_Type":"DEHY","Owner":"Chevron","Map_Owner":"Other","Postal_City_Name":"Bakersfield","Zip_Code":"93308","County":"Kern","State":"CA","Legend":"DEHY","Comments":" "},"geometry":{"type":"Point","coordinates":[-118.95535874726698,35.424963656405694]}},{"type":"Feature","properties":{"OBJECTID":177,"Gas_Station_ID":"NGS0691","MSID":" ","Name":"Buena Vista","Name_Confirm_Status":"Yes","Name_Source":"PG&E 2000","Alias":" ","Station_Type":"DEHY","Owner":"PG&E","Map_Owner":"PG&E","Postal_City_Name":"Bakersfield","Zip_Code":"93311","County":"Kern","State":"CA","Legend":"DEHY","Comments":" "},"geometry":{"type":"Point","coordinates":[-119.13667037566884,35.31805641562278]}},{"type":"Feature","properties":{"OBJECTID":178,"Gas_Station_ID":"NGS0854","MSID":" ","Name":"El Paso-Rancho","Name_Confirm_Status":"No","Name_Source":"Street Intersection","Alias":" ","Station_Type":"DEHY","Owner":"Mojave Pipeline","Map_Owner":"Other","Postal_City_Name":"Arvin","Zip_Code":"93203","County":"Kern","State":"CA","Legend":"DEHY","Comments":" "},"geometry":{"type":"Point","coordinates":[-118.85085185331036,35.060256516262825]}},{"type":"Feature","properties":{"OBJECTID":179,"Gas_Station_ID":"NGS0875","MSID":" ","Name":"Vista Del Mar","Name_Confirm_Status":"No","Name_Source":"Topo","Alias":" ","Station_Type":"DEHY","Owner":"SoCal Gas","Map_Owner":"SoCal Gas","Postal_City_Name":"Goleta","Zip_Code":"93117","County":"Santa Barbara","State":"CA","Legend":"DEHY","Comments":" "},"geometry":{"type":"Point","coordinates":[-120.19658287515624,34.47364311064654]}},{"type":"Feature","properties":{"OBJECTID":180,"Gas_Station_ID":"NGS0881","MSID":" ","Name":"Atascadero 2","Name_Confirm_Status":"No","Name_Source":"Creek","Alias":" ","Station_Type":"DEHY","Owner":"SoCal Gas","Map_Owner":"SoCal Gas","Postal_City_Name":"Santa Barbara","Zip_Code":"93111","County":"Santa Barbara","State":"CA","Legend":"DEHY","Comments":" "},"geometry":{"type":"Point","coordinates":[-119.82651522242028,34.42005678869586]}},{"type":"Feature","properties":{"OBJECTID":181,"Gas_Station_ID":"NGS0884","MSID":" ","Name":"Pacific","Name_Confirm_Status":"No","Name_Source":"Ocean","Alias":" ","Station_Type":"DEHY","Owner":"SoCal Gas","Map_Owner":"SoCal Gas","Postal_City_Name":"Santa Barbara","Zip_Code":"93111","County":"Santa Barbara","State":"CA","Legend":"DEHY","Comments":" "},"geometry":{"type":"Point","coordinates":[-119.8205576195669,34.41770473723796]}},{"type":"Feature","properties":{"OBJECTID":182,"Gas_Station_ID":"NGS0979","MSID":" ","Name":"Magic Mt.","Name_Confirm_Status":"No","Name_Source":"Street","Alias":" ","Station_Type":"DEHY","Owner":"SoCal Gas","Map_Owner":"SoCal Gas","Postal_City_Name":"Valencia","Zip_Code":"91355","County":"Los Angeles","State":"CA","Legend":"DEHY","Comments":" "},"geometry":{"type":"Point","coordinates":[-118.57175874627852,34.42302639440662]}},{"type":"Feature","properties":{"OBJECTID":183,"Gas_Station_ID":"NGS1003","MSID":" ","Name":"Lincoln","Name_Confirm_Status":"No","Name_Source":"Street","Alias":" ","Station_Type":"DEHY","Owner":"SoCal Gas","Map_Owner":"SoCal Gas","Postal_City_Name":"Montebello","Zip_Code":"90640","County":"Los Angeles","State":"CA","Legend":"DEHY","Comments":" "},"geometry":{"type":"Point","coordinates":[-118.08416897089148,34.02664263976593]}},{"type":"Feature","properties":{"OBJECTID":184,"Gas_Station_ID":"NGS1073","MSID":" ","Name":"San Timoteo","Name_Confirm_Status":"No","Name_Source":"Street","Alias":" ","Station_Type":"DEHY","Owner":"SoCal Gas","Map_Owner":"SoCal Gas","Postal_City_Name":"Beaumont","Zip_Code":"92223","County":"Riverside","State":"CA","Legend":"DEHY","Comments":" "},"geometry":{"type":"Point","coordinates":[-117.03468462980123,33.94339128679686]}},{"type":"Feature","properties":{"OBJECTID":185,"Gas_Station_ID":"NGS0997","MSID":" ","Name":"Del Amo","Name_Confirm_Status":"No","Name_Source":"Street","Alias":" ","Station_Type":"DEHY","Owner":"SoCal Gas","Map_Owner":"SoCal Gas","Postal_City_Name":"Long Beach","Zip_Code":"90805","County":"Los Angeles","State":"CA","Legend":"DEHY","Comments":" "},"geometry":{"type":"Point","coordinates":[-118.20430666909212,33.84576766197733]}},{"type":"Feature","properties":{"OBJECTID":186,"Gas_Station_ID":"NGS1117","MSID":" ","Name":"Pebble Beach-Carlton Oaks","Name_Confirm_Status":"No","Name_Source":"Street Intersection","Alias":" ","Station_Type":"DEHY","Owner":"SDG&E","Map_Owner":"SDG&E","Postal_City_Name":"Santee","Zip_Code":"92071","County":"San Diego","State":"CA","Legend":"DEHY","Comments":" "},"geometry":{"type":"Point","coordinates":[-117.00622442810658,32.84435799970093]}},{"type":"Feature","properties":{"OBJECTID":187,"Gas_Station_ID":"NGS1127","MSID":" ","Name":"Ntcq","Name_Confirm_Status":"Yes","Name_Source":"Cec Substation","Alias":" ","Station_Type":"DEHY","Owner":"SDG&E","Map_Owner":"SDG&E","Postal_City_Name":"San Diego","Zip_Code":"92110","County":"San Diego","State":"CA","Legend":"DEHY","Comments":" "},"geometry":{"type":"Point","coordinates":[-117.1924771307235,32.74630121196152]}},{"type":"Feature","properties":{"OBJECTID":188,"Gas_Station_ID":"NGS1128","MSID":" ","Name":"Alvarado-Guava","Name_Confirm_Status":"No","Name_Source":"Street Intersection","Alias":" ","Station_Type":"DEHY","Owner":"SDG&E","Map_Owner":"SDG&E","Postal_City_Name":"La Mesa","Zip_Code":"91941","County":"San Diego","State":"CA","Legend":"DEHY","Comments":" "},"geometry":{"type":"Point","coordinates":[-117.02970844564676,32.772515454361375]}},{"type":"Feature","properties":{"OBJECTID":189,"Gas_Station_ID":"NGS1126","MSID":" ","Name":"Us Elevator","Name_Confirm_Status":"No","Name_Source":"Street","Alias":" ","Station_Type":"DEHY","Owner":"SDG&E","Map_Owner":"SDG&E","Postal_City_Name":"Spring Valley","Zip_Code":"91978","County":"San Diego","State":"CA","Legend":"DEHY","Comments":" "},"geometry":{"type":"Point","coordinates":[-116.96648531434336,32.7217931345775]}},{"type":"Feature","properties":{"OBJECTID":190,"Gas_Station_ID":"NGS1118","MSID":" ","Name":"Sweetwater-Quarry","Name_Confirm_Status":"No","Name_Source":"Street Intersection","Alias":" ","Station_Type":"DEHY","Owner":"SDG&E","Map_Owner":"SDG&E","Postal_City_Name":"Bonita","Zip_Code":"91902","County":"San Diego","State":"CA","Legend":"DEHY","Comments":" "},"geometry":{"type":"Point","coordinates":[-117.01588367942432,32.68658450839353]}},{"type":"Feature","properties":{"OBJECTID":191,"Gas_Station_ID":"NGS1119","MSID":" ","Name":"South Bay","Name_Confirm_Status":"No","Name_Source":"Street","Alias":" ","Station_Type":"DEHY","Owner":"SDG&E","Map_Owner":"SDG&E","Postal_City_Name":"Chula Vista","Zip_Code":"91915","County":"San Diego","State":"CA","Legend":"DEHY","Comments":" "},"geometry":{"type":"Point","coordinates":[-116.97197890634423,32.6417947446494]}},{"type":"Feature","properties":{"OBJECTID":192,"Gas_Station_ID":"NGS0004","MSID":" ","Name":"U.S. 395","Name_Confirm_Status":"No","Name_Source":"Street","Alias":" ","Station_Type":"DEHY & ODOR","Owner":"TGTC","Map_Owner":"Other","Postal_City_Name":"Likely","Zip_Code":"96116","County":"Modoc","State":"CA","Legend":"DEHY","Comments":" "},"geometry":{"type":"Point","coordinates":[-120.50607501809444,41.29760658072965]}},{"type":"Feature","properties":{"OBJECTID":193,"Gas_Station_ID":"NGS0059","MSID":" ","Name":"Kirkwood","Name_Confirm_Status":"Yes","Name_Source":"PG&E 2000","Alias":" ","Station_Type":"DEHY & ODOR","Owner":"PG&E","Map_Owner":"PG&E","Postal_City_Name":"Corning","Zip_Code":"96021","County":"Tehama","State":"CA","Legend":"DEHY","Comments":" "},"geometry":{"type":"Point","coordinates":[-122.14106041563564,39.86514598119914]}},{"type":"Feature","properties":{"OBJECTID":194,"Gas_Station_ID":"NGS0060","MSID":" ","Name":"Rice Creek","Name_Confirm_Status":"Yes","Name_Source":"PG&E 2000","Alias":" ","Station_Type":"DEHY & ODOR","Owner":"PG&E","Map_Owner":"PG&E","Postal_City_Name":"Orland","Zip_Code":"95963","County":"Tehama","State":"CA","Legend":"DEHY","Comments":" "},"geometry":{"type":"Point","coordinates":[-122.1432321136824,39.833421319440674]}},{"type":"Feature","properties":{"OBJECTID":195,"Gas_Station_ID":"NGS0068","MSID":" ","Name":"Orland Asphalt","Name_Confirm_Status":"Yes","Name_Source":"PG&E 2000","Alias":" ","Station_Type":"DEHY & ODOR","Owner":"PG&E","Map_Owner":"PG&E","Postal_City_Name":"Orland","Zip_Code":"95963","County":"Glenn","State":"CA","Legend":"DEHY","Comments":" "},"geometry":{"type":"Point","coordinates":[-122.21124682081594,39.79459174179756]}},{"type":"Feature","properties":{"OBJECTID":196,"Gas_Station_ID":"NGS0069","MSID":" ","Name":"Castillo 2","Name_Confirm_Status":"Yes","Name_Source":"PG&E 2000","Alias":" ","Station_Type":"DEHY & ODOR","Owner":"PG&E","Map_Owner":"PG&E","Postal_City_Name":"Orland","Zip_Code":"95963","County":"Glenn","State":"CA","Legend":"DEHY","Comments":" "},"geometry":{"type":"Point","coordinates":[-122.20674880738596,39.7797865081124]}},{"type":"Feature","properties":{"OBJECTID":197,"Gas_Station_ID":"NGS0074","MSID":" ","Name":"Castillo 1","Name_Confirm_Status":"Yes","Name_Source":"PG&E 2000","Alias":" ","Station_Type":"DEHY & ODOR","Owner":"PG&E","Map_Owner":"PG&E","Postal_City_Name":"Orland","Zip_Code":"95963","County":"Glenn","State":"CA","Legend":"DEHY","Comments":" "},"geometry":{"type":"Point","coordinates":[-122.22098147680936,39.75451434800288]}},{"type":"Feature","properties":{"OBJECTID":198,"Gas_Station_ID":"NGS0103","MSID":" ","Name":"Valve 110","Name_Confirm_Status":"Yes","Name_Source":"PG&E 2000","Alias":" ","Station_Type":"DEHY & ODOR","Owner":"PG&E","Map_Owner":"PG&E","Postal_City_Name":"Glenn","Zip_Code":"95943","County":"Glenn","State":"CA","Legend":"DEHY","Comments":" "},"geometry":{"type":"Point","coordinates":[-122.05314519745852,39.50720455487281]}},{"type":"Feature","properties":{"OBJECTID":199,"Gas_Station_ID":"NGS0110","MSID":" ","Name":"Alton","Name_Confirm_Status":"Yes","Name_Source":"PG&E 2000","Alias":" ","Station_Type":"DEHY & ODOR","Owner":"PG&E","Map_Owner":"PG&E","Postal_City_Name":"Butte City","Zip_Code":"95920","County":"Glenn","State":"CA","Legend":"DEHY","Comments":" "},"geometry":{"type":"Point","coordinates":[-121.96726023006724,39.43109487932474]}},{"type":"Feature","properties":{"OBJECTID":200,"Gas_Station_ID":"NGS0109","MSID":" ","Name":"Compton Landing","Name_Confirm_Status":"Yes","Name_Source":"PG&E 2000","Alias":" ","Station_Type":"DEHY & ODOR","Owner":"PG&E","Map_Owner":"PG&E","Postal_City_Name":"Colusa","Zip_Code":"95932","County":"Colusa","State":"CA","Legend":"DEHY","Comments":" "},"geometry":{"type":"Point","coordinates":[-122.03456323254171,39.359207004668725]}},{"type":"Feature","properties":{"OBJECTID":201,"Gas_Station_ID":"NGS0161","MSID":" ","Name":"Todhunater'S Lake","Name_Confirm_Status":"Yes","Name_Source":"PG&E 2000","Alias":" ","Station_Type":"DEHY & ODOR","Owner":"PG&E","Map_Owner":"PG&E","Postal_City_Name":"Davis","Zip_Code":"95618","County":"Yolo","State":"CA","Legend":"DEHY","Comments":" "},"geometry":{"type":"Point","coordinates":[-121.6657523116222,38.56059552009625]}},{"type":"Feature","properties":{"OBJECTID":202,"Gas_Station_ID":"NGS0261","MSID":" ","Name":"Collinsvile","Name_Confirm_Status":"No","Name_Source":"Street","Alias":" ","Station_Type":"DEHY & ODOR","Owner":"PG&E","Map_Owner":"PG&E","Postal_City_Name":"Rio Vista","Zip_Code":"94571","County":"Solano","State":"CA","Legend":"DEHY","Comments":" "},"geometry":{"type":"Point","coordinates":[-121.77251594075152,38.07934047016917]}},{"type":"Feature","properties":{"OBJECTID":203,"Gas_Station_ID":"NGS0312","MSID":" ","Name":"Andrus Island","Name_Confirm_Status":"No","Name_Source":"Island","Alias":" ","Station_Type":"DEHY & ODOR","Owner":"PG&E","Map_Owner":"PG&E","Postal_City_Name":"Isleton","Zip_Code":"95641","County":"Sacramento","State":"CA","Legend":"DEHY","Comments":" "},"geometry":{"type":"Point","coordinates":[-121.5701280124341,38.18985109821924]}},{"type":"Feature","properties":{"OBJECTID":204,"Gas_Station_ID":"NGS0313","MSID":" ","Name":"Tyler Island 2","Name_Confirm_Status":"No","Name_Source":"Island","Alias":" ","Station_Type":"DEHY & ODOR","Owner":"PG&E","Map_Owner":"PG&E","Postal_City_Name":"Isleton","Zip_Code":"95641","County":"Sacramento","State":"CA","Legend":"DEHY","Comments":" "},"geometry":{"type":"Point","coordinates":[-121.56837938180377,38.18121154308504]}},{"type":"Feature","properties":{"OBJECTID":205,"Gas_Station_ID":"NGS0317","MSID":" ","Name":"Termincus","Name_Confirm_Status":"No","Name_Source":"Street","Alias":" ","Station_Type":"DEHY & ODOR","Owner":"PG&E","Map_Owner":"PG&E","Postal_City_Name":"Isleton","Zip_Code":"95641","County":"Sacramento","State":"CA","Legend":"DEHY","Comments":" "},"geometry":{"type":"Point","coordinates":[-121.61724189789491,38.15514868677889]}},{"type":"Feature","properties":{"OBJECTID":206,"Gas_Station_ID":"NGS0320","MSID":" ","Name":"W Woodbr1Dge 1","Name_Confirm_Status":"No","Name_Source":"Street","Alias":" ","Station_Type":"DEHY & ODOR","Owner":"PG&E","Map_Owner":"PG&E","Postal_City_Name":"Lodi","Zip_Code":"95242","County":"San Joaquin","State":"CA","Legend":"DEHY","Comments":" "},"geometry":{"type":"Point","coordinates":[-121.42779690216253,38.159060323054305]}},{"type":"Feature","properties":{"OBJECTID":207,"Gas_Station_ID":"NGS0204","MSID":" ","Name":"Seahorse","Name_Confirm_Status":"No","Name_Source":"Street","Alias":" ","Station_Type":"DEHY & ODOR","Owner":"PG&E","Map_Owner":"PG&E","Postal_City_Name":"Vallejo","Zip_Code":"94591","County":"Solano","State":"CA","Legend":"DEHY","Comments":" "},"geometry":{"type":"Point","coordinates":[-122.22086334219873,38.07305908229078]}},{"type":"Feature","properties":{"OBJECTID":208,"Gas_Station_ID":"NGS0335","MSID":" ","Name":"Sherman Sialnd Levee 2","Name_Confirm_Status":"No","Name_Source":"Street","Alias":" ","Station_Type":"DEHY & ODOR","Owner":"PG&E","Map_Owner":"PG&E","Postal_City_Name":"Rio Vista","Zip_Code":"94571","County":"Sacramento","State":"CA","Legend":"DEHY","Comments":" "},"geometry":{"type":"Point","coordinates":[-121.6956210291574,38.10274632497571]}},{"type":"Feature","properties":{"OBJECTID":209,"Gas_Station_ID":"NGS0406","MSID":" ","Name":"Bether 1Sland 1","Name_Confirm_Status":"No","Name_Source":"Island","Alias":" ","Station_Type":"DEHY & ODOR","Owner":"PG&E","Map_Owner":"PG&E","Postal_City_Name":"Oakley","Zip_Code":"94561","County":"Contra Costa","State":"CA","Legend":"DEHY","Comments":" "},"geometry":{"type":"Point","coordinates":[-121.66053717204709,38.03431075960388]}},{"type":"Feature","properties":{"OBJECTID":210,"Gas_Station_ID":"NGS0407","MSID":" ","Name":"Bether Island 2","Name_Confirm_Status":"No","Name_Source":"Island","Alias":" ","Station_Type":"DEHY & ODOR","Owner":"PG&E","Map_Owner":"PG&E","Postal_City_Name":"Oakley","Zip_Code":"94561","County":"Contra Costa","State":"CA","Legend":"DEHY","Comments":" "},"geometry":{"type":"Point","coordinates":[-121.66084815523544,38.03234260970514]}},{"type":"Feature","properties":{"OBJECTID":211,"Gas_Station_ID":"NGS0408","MSID":" ","Name":"Jersey 1Sland 1","Name_Confirm_Status":"No","Name_Source":"Street","Alias":" ","Station_Type":"DEHY & ODOR","Owner":"PG&E","Map_Owner":"PG&E","Postal_City_Name":"Oakley","Zip_Code":"94561","County":"Contra Costa","State":"CA","Legend":"DEHY","Comments":" "},"geometry":{"type":"Point","coordinates":[-121.66535264371568,38.01656065119601]}},{"type":"Feature","properties":{"OBJECTID":212,"Gas_Station_ID":"NGS0343","MSID":" ","Name":"King Island","Name_Confirm_Status":"No","Name_Source":"Street","Alias":" ","Station_Type":"DEHY & ODOR","Owner":"PG&E","Map_Owner":"PG&E","Postal_City_Name":"Stockton","Zip_Code":"95219","County":"San Joaquin","State":"CA","Legend":"DEHY","Comments":" "},"geometry":{"type":"Point","coordinates":[-121.42371605245934,38.08222385723512]}},{"type":"Feature","properties":{"OBJECTID":213,"Gas_Station_ID":"NGS0382","MSID":" ","Name":"Whiskey Slough 3","Name_Confirm_Status":"No","Name_Source":"River","Alias":" ","Station_Type":"DEHY & ODOR","Owner":"PG&E","Map_Owner":"PG&E","Postal_City_Name":"Stockton","Zip_Code":"95206","County":"San Joaquin","State":"CA","Legend":"DEHY","Comments":" "},"geometry":{"type":"Point","coordinates":[-121.48808235032747,37.992108808492866]}},{"type":"Feature","properties":{"OBJECTID":214,"Gas_Station_ID":"NGS0394","MSID":" ","Name":"Lathrop","Name_Confirm_Status":"Yes","Name_Source":"PG&E 2000","Alias":" ","Station_Type":"DEHY & ODOR","Owner":"PG&E","Map_Owner":"PG&E","Postal_City_Name":"Stockton","Zip_Code":"95206","County":"San Joaquin","State":"CA","Legend":"DEHY","Comments":" "},"geometry":{"type":"Point","coordinates":[-121.3793282253497,37.8351221113956]}},{"type":"Feature","properties":{"OBJECTID":215,"Gas_Station_ID":"NGS0395","MSID":" ","Name":"Roberts","Name_Confirm_Status":"No","Name_Source":"Street","Alias":" ","Station_Type":"DEHY & ODOR","Owner":"PG&E","Map_Owner":"PG&E","Postal_City_Name":"Stockton","Zip_Code":"95206","County":"San Joaquin","State":"CA","Legend":"DEHY","Comments":" "},"geometry":{"type":"Point","coordinates":[-121.34504843687772,37.86601192875829]}},{"type":"Feature","properties":{"OBJECTID":216,"Gas_Station_ID":"NGS0473","MSID":" ","Name":"Howard","Name_Confirm_Status":"No","Name_Source":"Street","Alias":" ","Station_Type":"DEHY & ODOR","Owner":"Venoco","Map_Owner":"Other","Postal_City_Name":"Stockton","Zip_Code":"95206","County":"San Joaquin","State":"CA","Legend":"DEHY","Comments":" "},"geometry":{"type":"Point","coordinates":[-121.4221377830512,37.85362893021318]}},{"type":"Feature","properties":{"OBJECTID":217,"Gas_Station_ID":"NGS0420","MSID":" ","Name":"Sycamore 1","Name_Confirm_Status":"No","Name_Source":"Street","Alias":" ","Station_Type":"DEHY & ODOR","Owner":"PG&E","Map_Owner":"PG&E","Postal_City_Name":"Hercules","Zip_Code":"94547","County":"Contra Costa","State":"CA","Legend":"DEHY","Comments":" "},"geometry":{"type":"Point","coordinates":[-122.2522712064146,38.011971251215336]}},{"type":"Feature","properties":{"OBJECTID":218,"Gas_Station_ID":"NGS0357","MSID":" ","Name":"2 Durham Ferry 2","Name_Confirm_Status":"No","Name_Source":"Street","Alias":" ","Station_Type":"DEHY & ODOR","Owner":"PG&E","Map_Owner":"PG&E","Postal_City_Name":"Tracy","Zip_Code":"95304","County":"San Joaquin","State":"CA","Legend":"DEHY","Comments":" "},"geometry":{"type":"Point","coordinates":[-121.29426603386882,37.65867694436213]}},{"type":"Feature","properties":{"OBJECTID":219,"Gas_Station_ID":"NGS0396","MSID":" ","Name":"S Tracy","Name_Confirm_Status":"No","Name_Source":"Street","Alias":" ","Station_Type":"DEHY & ODOR","Owner":"PG&E","Map_Owner":"PG&E","Postal_City_Name":"Tracy","Zip_Code":"95304","County":"San Joaquin","State":"CA","Legend":"DEHY","Comments":" "},"geometry":{"type":"Point","coordinates":[-121.43498594279718,37.784319714098075]}},{"type":"Feature","properties":{"OBJECTID":220,"Gas_Station_ID":"NGS0555","MSID":" ","Name":"S Yuba","Name_Confirm_Status":"No","Name_Source":"Street","Alias":" ","Station_Type":"DEHY & ODOR","Owner":"PG&E","Map_Owner":"PG&E","Postal_City_Name":"Kerman","Zip_Code":"93630","County":"Fresno","State":"CA","Legend":"DEHY","Comments":" "},"geometry":{"type":"Point","coordinates":[-120.16967169108646,36.66186283441152]}},{"type":"Feature","properties":{"OBJECTID":221,"Gas_Station_ID":"NGS0635","MSID":" ","Name":"Alvarado","Name_Confirm_Status":"No","Name_Source":"Street","Alias":" ","Station_Type":"DEHY & ODOR","Owner":"ExxonMobil","Map_Owner":"Other","Postal_City_Name":"San Ardo","Zip_Code":"93450","County":"Monterey","State":"CA","Legend":"DEHY","Comments":" "},"geometry":{"type":"Point","coordinates":[-120.86391334051704,35.93851403540435]}},{"type":"Feature","properties":{"OBJECTID":222,"Gas_Station_ID":"NGS0670","MSID":" ","Name":"Lost Hills 1","Name_Confirm_Status":"No","Name_Source":"City","Alias":" ","Station_Type":"DEHY & ODOR","Owner":"PG&E","Map_Owner":"PG&E","Postal_City_Name":"Kettleman City","Zip_Code":"93239","County":"Kings","State":"CA","Legend":"DEHY","Comments":" "},"geometry":{"type":"Point","coordinates":[-119.77986908006427,35.79716491707521]}},{"type":"Feature","properties":{"OBJECTID":223,"Gas_Station_ID":"NGS0671","MSID":" ","Name":"Lost Hills 2","Name_Confirm_Status":"No","Name_Source":"City","Alias":" ","Station_Type":"DEHY & ODOR","Owner":"PG&E","Map_Owner":"PG&E","Postal_City_Name":"Kettleman City","Zip_Code":"93239","County":"Kings","State":"CA","Legend":"DEHY","Comments":" "},"geometry":{"type":"Point","coordinates":[-119.78029227690864,35.796911392789355]}},{"type":"Feature","properties":{"OBJECTID":224,"Gas_Station_ID":"NGS0705","MSID":" ","Name":"Kenmar 1","Name_Confirm_Status":"No","Name_Source":"Street","Alias":" ","Station_Type":"DEHY & ODOR","Owner":"PG&E","Map_Owner":"PG&E","Postal_City_Name":"Arvin","Zip_Code":"93203","County":"Kern","State":"CA","Legend":"DEHY","Comments":" "},"geometry":{"type":"Point","coordinates":[-118.80413035607975,35.160564846288175]}},{"type":"Feature","properties":{"OBJECTID":225,"Gas_Station_ID":"NGS0773","MSID":" ","Name":"Sycamore 2","Name_Confirm_Status":"No","Name_Source":"Street","Alias":" ","Station_Type":"DEHY & ODOR","Owner":"PG&E","Map_Owner":"PG&E","Postal_City_Name":"Arvin","Zip_Code":"93203","County":"Kern","State":"CA","Legend":"DEHY","Comments":" "},"geometry":{"type":"Point","coordinates":[-118.90567737419396,35.19389745111166]}},{"type":"Feature","properties":{"OBJECTID":226,"Gas_Station_ID":"NGS0876","MSID":" ","Name":"Bell Canyon","Name_Confirm_Status":"No","Name_Source":"Topo","Alias":" ","Station_Type":"DEHY & ODOR","Owner":"SoCal Gas","Map_Owner":"SoCal Gas","Postal_City_Name":"Goleta","Zip_Code":"93117","County":"Santa Barbara","State":"CA","Legend":"DEHY","Comments":" "},"geometry":{"type":"Point","coordinates":[-119.92201787453044,34.435652056646184]}},{"type":"Feature","properties":{"OBJECTID":227,"Gas_Station_ID":"NGS0887","MSID":" ","Name":"Carpinteria","Name_Confirm_Status":"No","Name_Source":"Street","Alias":" ","Station_Type":"DEHY & ODOR","Owner":"SoCal Gas","Map_Owner":"SoCal Gas","Postal_City_Name":"Carpinteria","Zip_Code":"93013","County":"Santa Barbara","State":"CA","Legend":"DEHY","Comments":" "},"geometry":{"type":"Point","coordinates":[-119.5055811606804,34.38940406888767]}},{"type":"Feature","properties":{"OBJECTID":228,"Gas_Station_ID":"NGS0991","MSID":" ","Name":"Paxton-Sharp","Name_Confirm_Status":"No","Name_Source":"Street Intersection","Alias":" ","Station_Type":"DEHY & ODOR","Owner":"SoCal Gas","Map_Owner":"SoCal Gas","Postal_City_Name":"Pacoima","Zip_Code":"91331","County":"Los Angeles","State":"CA","Legend":"DEHY","Comments":" "},"geometry":{"type":"Point","coordinates":[-118.44280417628023,34.26222944440086]}},{"type":"Feature","properties":{"OBJECTID":229,"Gas_Station_ID":"NGS1004","MSID":" ","Name":"Montebello","Name_Confirm_Status":"No","Name_Source":"Street","Alias":" ","Station_Type":"DEHY & ODOR","Owner":"SoCal Gas","Map_Owner":"SoCal Gas","Postal_City_Name":"Montebello","Zip_Code":"90640","County":"Los Angeles","State":"CA","Legend":"DEHY","Comments":" "},"geometry":{"type":"Point","coordinates":[-118.0852660399456,34.032513295768254]}},